record_num,date,month,day,year,barangay,location,latitude,longitude,flood_depth,weather_disturbance,remarks,time_reported,time_subsided
1,2022-03-14,3.0,14.0,2022,DIONISIO,INTERSECTION BOUNDARY OF CRUZ,14.47513822,121.0011419,knee,Localized Thunderstorms,TYPE OF VEHICLE KNEE,,
2,2022-03-14,3.0,14.0,2022,SAN ISIDRO,COMPOUND AND PUROK 5 SAN LUCAS ST.,14.47041838,121.0106894,gutter,Localized Thunderstorms,PASSABLE TO ANY TYPE OF VEHICLE PASSABLE TO ANY,,
3,2022-03-14,3.0,14.0,2022,SAN ISIDRO,VALLEY 6 BANANA,14.46696852,121.0027307,knee,Localized Thunderstorms,TYPE OF VEHICLE NOT PASSABLE TO,,
4,2022-03-14,3.0,14.0,2022,VITALEZ,COMPOUND SAN ANTONIO,14.50945879,121.0041835,gutter,Localized Thunderstorms,LIGHT VEHICLE GUTTER,,
5,2022-03-14,3.0,14.0,2022,ANTONIO,AVE. INTERSECTION DASA FOURTH,14.46485244,121.0198098,gutter,Localized Thunderstorms,LEVEL SUBSIDED PASSABLE TO ANY,,
6,2022-03-14,3.0,14.0,2022,ANTONIO,ESTATE BANNAER ST.,14.46104908,121.0274713,gutter,Localized Thunderstorms,TYPE OF VEHICLE GUTTER,,
7,2022-03-14,3.0,14.0,2022,ANTONIO,FOURTH ESTATE LOWER,14.46202658,121.03229,knee,Localized Thunderstorms,PASSABLE TO ANY LEVEL TYPE OF VEHICLE NOT PASSABLE TO,,
8,2022-03-14,3.0,14.0,2022,ANTONIO,BARANGAY SAN PEDRO,14.46949357,121.0240365,gutter,Localized Thunderstorms,LIGHT VEHICLE PASSABLE TO ANY,,
9,2022-03-14,3.0,14.0,2022,SAN ISIDRO,STREET,14.46947702,121.0069346,waist,Localized Thunderstorms,TYPE OF VEHICLE NOT PASSABLE TO,,
10,2022-05-15,5.0,15.0,2022,STO NIÑO,LIBJO AREA ILANG ILANG,14.49993154,121.0092085,gutter,Localized Thunderstorms,LIGHT VEHICLE PASSABLE TO ANY,,
11,2022-05-15,5.0,15.0,2022,GREEN,UPS 4 CHAMPACA,14.46070373,121.0385847,gutter,Localized Thunderstorms,TYPE OF VEHICLE GUTTER,,
12,2022-05-15,5.0,15.0,2022,GREEN,EXTENSION UPS 4,14.46299503,121.0375216,gutter,Localized Thunderstorms,PASSABLE TO ANY LEVEL TYPE OF VEHICLE PASSABLE TO ANY,,
13,2022-05-15,5.0,15.0,2022,SUN VALLEY,ANNEX 41,14.48930241,121.0310212,gutter,Localized Thunderstorms,TYPE OF VEHICLE PASSABLE TO ANY,,
14,2022-05-15,5.0,15.0,2022,MOONWALK,DAANG BATANG SCARLET,14.49255767,121.0112135,14.49255767 level half,Localized Thunderstorms,TYPE OF VEHICLE HALF,,
15,2022-05-15,5.0,15.0,2022,MOONWALK,STREET SAINT PAUL,14.49583651,121.0134215,knee,Localized Thunderstorms,PASSABLE TO ANY TYPE OF VEHICLE HALF,,
16,2022-05-15,5.0,15.0,2022,MOONWALK,ILOG,14.49482893,121.015504,knee,Localized Thunderstorms,PASSABLE TO ANY TYPE OF VEHICLE PASSABLE TO ANY,,
17,2022-05-15,5.0,15.0,2022,MOONWALK,KENKO AREA 1,14.50267121,121.0125305,gutter,Localized Thunderstorms,TYPE OF VEHICLE PASSABLE TO ANY,,
18,2022-06-08,6.0,8.0,2022,GREEN,CREEKVILLE,14.47069805,121.040021,gutter,Localized Thunderstorms,TYPE OF VEHICLE PASSABLE TO ANY,,
19,2022-06-08,6.0,8.0,2022,GREEN,HAPPY HOMES,14.46858824,121.0435637,gutter,Localized Thunderstorms,TYPE OF VEHICLE PASSABLE TO ANY,,
20,2022-06-08,6.0,8.0,2022,GREEN,ARMELA,14.46865703,121.0435851,gutter,Localized Thunderstorms,TYPE OF VEHICLE PASSABLE TO ANY,,
21,2022-06-08,6.0,8.0,2022,GREEN,SAVY 25,14.46908499,121.04024,gutter,Localized Thunderstorms,TYPE OF VEHICLE PASSABLE TO ANY,,
22,2022-06-08,6.0,8.0,2022,GREEN,SEVERINA 18 EVERLASTING,14.46597878,121.0449598,gutter,Localized Thunderstorms,TYPE OF VEHICLE PASSABLE TO ANY,,
23,2022-06-08,6.0,8.0,2022,GREEN,COMPOUND ILANG ILANG,14.47935455,121.0430553,gutter,Localized Thunderstorms,TYPE OF VEHICLE PASSABLE TO ANY,,
24,2022-06-08,6.0,8.0,2022,GREEN,UPS 4,14.46072373,121.0382676,gutter,Localized Thunderstorms,TYPE OF VEHICLE PASSABLE TO ANY,,
25,2022-06-08,6.0,8.0,2022,STO NIÑO,SITIO LIBJO,14.49988816,121.0097893,gutter,Localized Thunderstorms,TYPE OF VEHICLE PASSABLE TO ANY,,
26,2022-06-08,6.0,8.0,2022,STO NIÑO,HALIK ALON ST. BARCELONA,14.49840891,121.0058436,gutter,Localized Thunderstorms,TYPE OF VEHICLE PASSABLE TO ANY,,
27,2022-06-08,6.0,8.0,2022,MERVILLE,DULO,14.49691623,121.0189976,gutter,Localized Thunderstorms,TYPE OF VEHICLE PASSABLE TO ANY,,
28,2022-06-08,6.0,8.0,2022,SUN VALLEY,STA. ANA 2 EVACOM,14.49176819,121.0310122,gutter,Localized Thunderstorms,TYPE OF VEHICLE PASSABLE TO ANY,,
29,2022-09-10,9.0,10.0,2022,DIONISIO,INTERSECTION DIAMOND ST,14.47513822,121.0011419,knee,Localized Thunderstorms,TYPE OF VEHICLE KNEE,,
30,2022-09-10,9.0,10.0,2022,DIONISIO,BERNABE PHASE 3 OLIVAREZ,14.47284996,120.9980518,knee,Localized Thunderstorms,NOT PASSABLE TO LEVEL LIGHT VEHICLE KNEE,,
31,2022-09-10,9.0,10.0,2022,DIONISIO,COMPOUND GREENHILLS,14.48064823,120.9966998,gutter,Localized Thunderstorms,NOT PASSABLE TO LEVEL LIGHT VEHICLE PASSABLE TO ANY,,
32,2022-09-10,9.0,10.0,2022,DIONISIO,PNHS CAMELLA,14.47868124,120.9983019,gutter,Localized Thunderstorms,TYPE OF VEHICLE PASSABLE TO ANY,,
33,2022-09-10,9.0,10.0,2022,SAN ISIDRO,HOMES VALLEY 2 SAN,14.45796236,121.0102374,knee,Localized Thunderstorms,TYPE OF VEHICLE PASSABLE TO ANY,,
34,2022-09-10,9.0,10.0,2022,SAN ISIDRO,FELIPE SILVERIO,14.46935974,121.0075128,knee,Localized Thunderstorms,TYPE OF VEHICLE KNEE,,
35,2022-09-10,9.0,10.0,2022,SAN ISIDRO,COMPOUND PUROK 5,14.4724303,121.0125807,gutter,Localized Thunderstorms,NOT PASSABLE TO LEVEL LIGHT VEHICLE PASSABLE TO ANY,,
36,2022-09-10,9.0,10.0,2022,SAN ISIDRO,VALLEY 15 GREENHEIGHTS,14.4699983,121.0048132,knee,Localized Thunderstorms,TYPE OF VEHICLE KNEE,,
37,2022-09-10,9.0,10.0,2022,SAN ISIDRO,ENTRANCE LOPEZ AVE,14.46784745,121.0142414,gutter,Localized Thunderstorms,SUBSIDED PASSABLE TO ANY,,
38,2022-09-10,9.0,10.0,2022,SAN ISIDRO,BRIDGE SANTOS,14.4685983,121.0119256,waist,Localized Thunderstorms,TYPE OF VEHICLE PASSABLE TO ANY,,
39,2022-09-10,9.0,10.0,2022,DON BOSCO,COMPOUND EUTHOPIA,14.48505478,121.0303088,gutter,Localized Thunderstorms,TYPE OF VEHICLE PASSABLE TO ANY,,
40,2022-09-10,9.0,10.0,2022,DON BOSCO,STREET INDIA STREET,14.48316933,121.0343883,gutter,Localized Thunderstorms,TYPE OF VEHICLE PASSABLE TO ANY,,
41,2022-09-10,9.0,10.0,2022,DON BOSCO,ANNEX 35 FRANCE ST,,,waist,Localized Thunderstorms,TYPE OF VEHICLE PASSABLE TO ANY,,
42,2022-09-10,9.0,10.0,2022,DON BOSCO,ANNEX 35 F. SERRANO,,,knee,Localized Thunderstorms,TYPE OF VEHICLE KNEE,,
43,2022-09-10,9.0,10.0,2022,DON BOSCO,ELEM SCHOOL CREEK SIDE,14.48867823,121.0260738,knee,Localized Thunderstorms,PASSABLE TO ANY LEVEL TYPE OF VEHICLE PASSABLE TO ANY,,
44,2022-09-10,9.0,10.0,2022,MERVILLE,SITIO TUYUAN,14.49556193,121.0253435,knee,Localized Thunderstorms,TYPE OF VEHICLE PASSABLE TO ANY,,
45,2022-09-10,9.0,10.0,2022,MERVILLE,SITIO WELLA,14.50713342,121.0345085,knee,Localized Thunderstorms,TYPE OF VEHICLE PASSABLE TO ANY,,
46,2022-09-10,9.0,10.0,2022,MERVILLE,MANGGAHAN,14.50631058,121.02958,knee,Localized Thunderstorms,TYPE OF VEHICLE PASSABLE TO ANY,,
47,2022-09-10,9.0,10.0,2022,MERVILLE,SITION CATMEL,,,knee,Localized Thunderstorms,TYPE OF VEHICLE PASSABLE TO ANY,,
48,2022-09-10,9.0,10.0,2022,MERVILLE,EDISON FOURTH ESTATE,14.49794153,121.0332297,knee,Localized Thunderstorms,TYPE OF VEHICLE KNEE,,
49,2022-09-10,9.0,10.0,2022,ANTONIO,ELEMTARY SCHOOL FOURTH,14.46120376,121.0309414,gutter,Localized Thunderstorms,PASSABLE TO ANY TYPE OF VEHICLE GUTTER,,
50,2022-09-10,9.0,10.0,2022,ANTONIO,ESTATE BRIDGE SOUTHBOUND FOURTH,14.4610362,121.0272668,knee,Localized Thunderstorms,LEVEL SUBSIDED KNEE,,
51,2022-09-10,9.0,10.0,2022,ANTONIO,ESTATE BRIDGE NORTHBOUND LUPANG,14.46109681,121.0273484,knee,Localized Thunderstorms,PASSABLE TO ANY LEVEL TYPE OF VEHICLE KNEE,,
52,2022-09-10,9.0,10.0,2022,ANTONIO,HINIRANG AREA2 MA. SUSAFE ST,14.46223953,121.0317587,knee,Localized Thunderstorms,PASSABLE TO ANY LEVEL TYPE OF VEHICLE PASSABLE TO ANY,,
53,2022-09-10,9.0,10.0,2022,ANTONIO,VALLEY 1 PASCUAL,14.47293107,121.0203284,knee,Localized Thunderstorms,TYPE OF VEHICLE PASSABLE TO ANY,,
54,2022-09-10,9.0,10.0,2022,ANTONIO,COMPOUND BARANGAY,,,knee,Localized Thunderstorms,TYPE OF VEHICLE PASSABLE TO ANY,,
55,2022-09-10,9.0,10.0,2022,ANTONIO,VILLAGE,14.46621612,121.0256832,knee,Localized Thunderstorms,TYPE OF VEHICLE PASSABLE TO ANY,,
56,2022-09-10,9.0,10.0,2022,ANTONIO,VALLEY 3,14.47391824,121.0247116,knee,Localized Thunderstorms,TYPE OF VEHICLE NOT PASSABLE TO,,
57,2022-09-10,9.0,10.0,2022,STO NIÑO,SITIO LIBJO HALIK ALON ST.,14.49993154,121.0092085,waist,Localized Thunderstorms,LIGHT VEHICLE NOT PASSABLE TO WAIST,,
58,2022-09-10,9.0,10.0,2022,STO NIÑO,KAINGIN ROAD AREA 1 KENKO,14.49840891,121.0058436,knee,Localized Thunderstorms,ALL TYPES OF LEVEL VEHICLES NOT PASSABLE TO,,
59,2022-10-19,10.0,19.0,2022,MOONWALK,EXTENSION Fourth Estate,14.50275701,121.0125066,knee,Localized Thunderstorms,LIGHT VEHICLE Knee,,
60,2022-10-19,10.0,19.0,2022,ANTONIO,"Main Road Sunrise, Infornt of",14.46109681,121.0273484,knee,Thunderstorms/Southwesterly,NOT PASSABLE TO Level LIGHT VEHICLE Knee,,
61,2022-10-19,10.0,19.0,2022,ANTONIO,Brgy Hall Area 2 Lupang Hinirang,14.4628343,121.0340127,knee,Thunderstorms/Southwesterly,NOT PASSABLE TO Level LIGHT VEHICLE Knee,,
62,2022-10-19,10.0,19.0,2022,ANTONIO,Compound Fourth Estate Lower Barangay,14.46349674,121.0317287,knee,Thunderstorms/Southwesterly,NOT PASSABLE TO LIGHT VEHICLE Knee,,
63,2022-10-19,10.0,19.0,2022,ANTONIO,San Antonio Evacom,14.4695062,121.0240106,gutter,Thunderstorms/Southwesterly,NOT PASSABLE TO Level LIGHT VEHICLE Gutter,,
64,2022-10-19,10.0,19.0,2022,DIONISIO,Intersection,14.47513822,121.0011419,gutter,Thunderstorms/Southwesterly,PASSABLE TO ANY Level TYPE OF VEHICLE Gutter,,
65,2022-10-19,10.0,19.0,2022,DIONISIO,PNHS Footbridge Infront of PERU,14.47868124,120.9983019,gutter,Thunderstorms/Southwesterly,PASSABLE TO ANY Level TYPE OF VEHICLE Gutter,,
66,2022-10-19,10.0,19.0,2022,SAN ISIDRO,Base GREENHEIGHTS,14.46917885,121.0112578,knee,Thunderstorms/Southwesterly,Level SUBSIDED Knee,,
67,2022-10-19,10.0,19.0,2022,SAN ISIDRO,ENTRANCE,14.46784745,121.0142414,knee,Thunderstorms/Southwesterly,Level SUBSIDED Knee,,
68,2022-10-29,10.0,29.0,2022,SAN ISIDRO,SAV 12 CANAYNAY,14.46833371,121.0020815,gutter,Thunderstorms/Southwesterly,NOT PASSABLE TO Level LIGHT VEHICLE PASSABLE TO ANY,,
69,2022-10-29,10.0,29.0,2022,DIONISIO,AVE. IN FRONT OF SAN ANTONIO,14.47513822,121.0011419,gutter,,TYPE OF VEHICLE Gutter,,
70,2022-10-29,10.0,29.0,2022,DIONISIO,DE PADUA TRAMO 1 DIAMOND ST.,14.48719596,120.9873111,gutter,,PASSABLE TO ANY TYPE OF VEHICLE Gutter,,
71,2022-10-29,10.0,29.0,2022,DIONISIO,BERNABE PHASE 3 PNHS MAIN SAN,14.47279777,120.9980289,gutter,,PASSABLE TO ANY Level TYPE OF VEHICLE Gutter,,
72,2022-10-29,10.0,29.0,2022,DIONISIO,"DIONISIO (NORTHBOUND) PASCOR DRIVE,",14.47868124,120.9983019,gutter,,PASSABLE TO ANY Level TYPE OF VEHICLE PASSABLE TO ANY,,
73,2022-10-29,10.0,29.0,2022,STO NIÑO,"SITIO LIBJO SAVTODA TERMINAL, SAN",,,gutter,,TYPE OF VEHICLE Gutter,,
74,2022-10-29,10.0,29.0,2022,ANTONIO,VICENTE FERRER ST. VALLEY 1 SAN VICENTE,14.46565005,121.0206849,gutter,,Level PASSABLE TO ANY TYPE OF VEHICLE Gutter,,
75,2022-10-29,10.0,29.0,2022,ANTONIO,ST. COR SAN ANTONIO AVE. NUESTRA SEÑORA DE LA,14.46521569,121.0199061,gutter,,PASSABLE TO ANY Level TYPE OF VEHICLE Gutter,,
76,2022-10-29,10.0,29.0,2022,ANTONIO,PAZ ST VALLEY 1 BANNER AVE. COR FAME ST,14.4658054,121.0188268,14.4658054 level below,,PASSABLE TO ANY TYPE OF VEHICLE Below,,
77,2022-10-29,10.0,29.0,2022,ANTONIO,"AREA 2 FOURTH ESTATE LOWER BRGY,",14.46218759,121.031898,knee,,Knee NOT PASSABLE TO Level LIGHT VEHICLE Below,,
78,2022-10-29,10.0,29.0,2022,ANTONIO,"VALLEY 1 CREEKDRIVE 2,",14.46953007,121.0240237,knee,,NOT PASSABLE TO LIGHT VEHICLE NOT PASSABLE TO,,
79,2022-10-29,10.0,29.0,2022,ANTONIO,VALLEY 8 SCHOLASTIC,14.47154581,121.0299704,gutter,,LIGHT VEHICLE PASSABLE TO ANY,,
80,2022-10-29,10.0,29.0,2022,ANTONIO,ST. VALLEY 1 GAWAD,14.47177702,121.0238514,knee,,TYPE OF VEHICLE NOT PASSABLE TO,,
81,2022-10-29,10.0,29.0,2022,MOONWALK,KALINGA AYA,,,gutter,,LIGHT VEHICLE PASSABLE TO ANY,,
82,2022-10-29,10.0,29.0,2022,MOONWALK,GALATIA,14.49452415,121.0044093,waist,,TYPE OF VEHICLE NOT PASSABLE TO,,
83,2022-10-29,10.0,29.0,2022,MOONWALK,HAISE 2,,,waist,,LIGHT VEHICLE NOT PASSABLE TO,,
84,2022-10-29,10.0,29.0,2022,MERVILLE,SITIO WELLA,14.50724103,121.0344902,knee,,LIGHT VEHICLE NOT PASSABLE TO,,
85,2022-10-30,10.0,30.0,2022,MERVILLE,SITIO TUYUAN EVACOM,14.4953319,121.0253154,waist,,LIGHT VEHICLE NOT PASSABLE TO Waist,,
87,2022-10-30,10.0,30.0,2022,DIONISIO,SM SUCAT SITIO,14.48380721,120.9947401,gutter,,PASSABLE TO ANY,,
88,2022-10-30,10.0,30.0,2022,DIONISIO,KALAYAAN GATCHALIAN,,,waist,,TYPE OF VEHICLE NOT PASSABLE TO Waist,,
89,2022-10-30,10.0,30.0,2022,DIONISIO,PHASE 2C STO NIÑO ST. BARIO MAGANDA,14.47612495,120.9946395,waist,,ALL TYPES OF Level VEHICLES NOT PASSABLE TO,,
90,2022-10-30,10.0,30.0,2022,DIONISIO,PHASE 3 GREENHILLS DIAMOND ST,14.47785306,120.9928442,chest,,ALL TYPES OF VEHICLES NOT PASSABLE TO Chest,,
91,2022-10-30,10.0,30.0,2022,DIONISIO,BERNABE PHASE 3 PNHS MAIN SAN,14.47281565,120.9980247,waist,,ALL TYPES OF Level VEHICLES NOT PASSABLE TO Waist,,
92,2022-10-30,10.0,30.0,2022,DIONISIO,DIONISIO (NORTHBOUND),14.47866393,120.9983473,14.47866393 level above,,ALL TYPES OF Level VEHICLES NOT PASSABLE TO,,
93,2022-10-30,10.0,30.0,2022,DIONISIO,KAYTALISE REDEMPTORIST,14.47973091,121.0001216,chest,,ALL TYPES OF VEHICLES Half-,,
94,2022-10-30,10.0,30.0,2022,BACLARAN,ROAD BAGONG SIKAT,14.53223104,120.9958087,gutter,,NOT PASSABLE TO LIGHT VEHICLE Gutter,,
95,2022-10-30,10.0,30.0,2022,BACLARAN,TABING ILOG AREA 4 BAGONG ILOG,,,gutter,,PASSABLE TO ANY Level TYPE OF VEHICLE PASSABLE TO ANY,,
96,2022-10-30,10.0,30.0,2022,BACLARAN,STREET BAGONG,14.53147133,120.9969827,gutter,,TYPE OF VEHICLE PASSABLE TO ANY,,
97,2022-10-30,10.0,30.0,2022,BACLARAN,SILANG STREET,,,gutter,,TYPE OF VEHICLE PASSABLE TO ANY,,
98,2022-10-30,10.0,30.0,2022,BACLARAN,SITIO MALIGAYA,14.52717665,120.9980516,knee,,TYPE OF VEHICLE NOT PASSABLE TO,,
99,2022-10-30,10.0,30.0,2022,BACLARAN,SANTIAGO ST,14.5286804,120.9972023,waist,,LIGHT VEHICLE NOT PASSABLE TO Waist,,
100,2022-10-30,10.0,30.0,2022,VITALEZ,URMA DRIVE,14.50995207,121.0056774,knee,,ALL TYPES OF Level VEHICLES Not passable to light,,
101,2022-10-30,10.0,30.0,2022,SAN ISIDRO,TOP LAND VALLEY 2 SAN,14.47124782,120.9990647,14.47124782 level,,vehicles,,
102,2022-10-30,10.0,30.0,2022,SAN ISIDRO,FELIPE VERAVILLE,14.46953429,121.0069681,N/A above,,N/A - Above,,
103,2022-10-30,10.0,30.0,2022,SAN ISIDRO,PHASE 2 CLARMEN,14.47055526,121.005368,gutter,,Chest - Passable to any type of,,
104,2022-10-30,10.0,30.0,2022,SAN ISIDRO,VILLAGE SILVERIO,14.47467159,121.0046156,14.47467159 level above,,vehicle Above,,
105,2022-10-30,10.0,30.0,2022,SAN ISIDRO,COMPOUND PUROK 3,14.47013279,121.0115039,knee,,Chest - Knee,,
106,2022-10-30,10.0,30.0,2022,STO NIÑO,SITIO LIBJO,14.49988816,121.0097893,waist,,- Waist,,
107,2022-10-30,10.0,30.0,2022,STO NIÑO,HALIK ALON,14.49826925,121.0052936,knee,,- Knee,,
108,2022-10-30,10.0,30.0,2022,LA HUERTA,P. Gomez St.,14.50040674,120.9927893,14.50040674 level above,,- Above,,
86,,,,2022,DIONISIO,Intersection,14.47524909,121.0009667,14.47524909 level,,ALL TYPES OF Level VEHICLES,,
109,,,,2022,LA HUERTA,C5 Bahay Rotary,14.49540317,120.9986998,knee,,Knee -,,
6,2023-05-20,5.0,20.0,2023,,Compound Phase 3 Aratiles St.,14.47297956,120.9979914,gutter,Thunderstorm,Subsided as of 1400H,,
7,2023-05-20,,,2023,,Olivarez Compound,14.47673239,120.9922703,gutter,Thunderstorm,Subsided as of 1300H Subsided as,,
8,2023-05-20,,,2023,,Pitong Gatang,14.49254087,120.9897297,knee,Thunderstorm,120.9897297 of 1300H Subsided as,,
9,2023-05-20,,,2023,,Hidden Village San Antonio,14.47142042,121.0110769,waist,Thunderstorm,121.0110769 of 1030H Subsided as,,
10,2023-05-20,,,2023,,Valley 2,14.4697662,121.0071013,knee,Thunderstorm,121.0071013 of 1230H Subsided as,,
11,2023-05-20,,,2023,San Isidro,Top Land,14.47139324,120.9990969,knee,Thunderstorm,120.9990969 of 1230H Subsided as,,
12,2023-05-20,,,2023,,Garden City 1 Greenheights,14.47493903,121.0122091,gutter,Thunderstorm,121.0122091 of 1300H Subsided as,,
13,2023-05-20,,,2023,,Subdivision,14.46761195,121.0141183,knee,Thunderstorm,121.0141183 of 1300H Subsided as,,
14,2023-05-20,,,2023,Sto Niño,Pascor Drive,14.50845386,120.9982638,knee,Thunderstorm,120.9982638 of 1030H Subsided as,,
15,2023-05-20,,,2023,,Johan St.,14.50796613,120.999567,knee,Thunderstorm,120.999567 of 1030H Subsided as,,
16,2023-05-20,,,2023,Don Bosco,El Dorado Dulo Fourth Estate,14.4811838,121.0215527,knee,Thunderstorm,121.0215527 of 1230H Subsided as,,
17,2023-05-20,,,2023,,(North Bound),14.46104748,121.0274228,knee,Thunderstorm,121.0274228 of 1100H Subsided as,,
18,2023-05-20,,,2023,,Area 2 San Antonio,14.46354921,121.0316895,knee,Thunderstorm,121.0316895 of 1100H Subsided as,,
19,2023-05-20,,,2023,San Antonio,Valley 1 Stoplight San Antonio,14.46505509,121.0198629,gutter,Thunderstorm,of 1030H Subsided as,,
20,2023-05-20,,,2023,,Valley 3,14.47382233,121.0248753,knee,Thunderstorm,121.0248753 of 1100H Subsided as,,
21,2023-05-20,,,2023,,Susafe St Sun Valley,14.47192745,121.0200041,knee,Thunderstorm,121.0200041 of 1230H Subsided as,,
22,2023-05-20,,,2023,Sun Valley,Subdivision,14.49114515,121.0386929,knee,Thunderstorm,121.0386929 of 1030H Subsided as,,
23,2023-05-20,,,2023,,Culdesac,14.49313255,121.0362397,knee,Thunderstorm,121.0362397 of 1030H,,
24,2023-05-20,,,2023,,Bernabe Phase 3,14.47297956,120.9979914,knee,MONSOON/TYPHOON BETTY,Subsided as of 2021H,,
25,2023-05-20,,,2023,San Dionisio,Canaynay Ave.,14.47510689,121.0011236,gutter,MONSOON/TYPHOON BETTY,Subsided as of 1730H,,
26,2023-05-20,,,2023,,PNHS Main,14.47873163,120.9982858,knee,MONSOON/TYPHOON BETTY,Subsided as of 1735H,,
27,2023-05-20,,,2023,San Isidro,Top Land,14.47139324,120.9990969,knee,MONSOON/TYPHOON BETTY,Subsided as of 1734H,,
28,2023-05-20,,,2023,Sto Niño,Halik Alon,14.49751656,121.0028845,knee,MONSOON/TYPHOON BETTY,Subsided as of 1740H,,
29,2023-05-20,,,2023,,Doña Soledad Extension,14.48581131,121.0282639,knee,MONSOON/TYPHOON BETTY,Subsided as of 1740H,,
30,2023-05-20,,,2023,,El Dorado Dulo Lancris,14.48040695,121.0212885,knee,MONSOON/TYPHOON BETTY,Subsided as of 1740H,,
31,2023-05-20,,,2023,Don Bosco,Residences,14.47562421,121.0269867,gutter,MONSOON/TYPHOON BETTY,Subsided as of 1730H,,
32,2023-05-20,,,2023,,India Street,14.48064647,121.0309432,gutter,MONSOON/TYPHOON BETTY,Subsided as of 1730H,,
33,2023-05-20,,,2023,,Santos Extension,14.49253065,121.0104106,gutter,MONSOON/TYPHOON BETTY,Subsided as of 1740H,,
34,2023-05-20,,,2023,Green,Ilang-Ilang Street Sampaguita,14.46176407,121.0428821,gutter,MONSOON/TYPHOON BETTY,Subsided as of 1737H,,
35,2023-05-20,,,2023,,Street Fourth Estate,14.46983638,121.0375532,knee,MONSOON/TYPHOON BETTY,Subsided as of 1737H,,
36,2023-05-20,,,2023,,(North Bound) Fourth Estate,14.46104748,121.0274228,knee,MONSOON/TYPHOON BETTY,Subsided as of 1737H,,
37,2023-05-20,,,2023,San Antonio,(South Bound),14.46101814,121.0273447,gutter,MONSOON/TYPHOON BETTY,Subsided as of 1730H,,
38,2023-05-20,,,2023,,Lower Barangay,14.46947844,121.0240903,knee,MONSOON/TYPHOON BETTY,121.0240903 - Subsided as,,
39,2023-05-20,,,2023,,Bagong Ilog Roax BLVD cor.,14.53154406,120.997831,gutter,Thunderstorm,120.997831 of 2334H Subsided as,,
40,2023-05-20,,,2023,Baclaran,NAIA Rd.,14.51761763,120.9931615,waist,Thunderstorm,120.9931615 of 0021H Subsided as,,
41,2023-05-20,,,2023,,Dimasalang St.,14.53038217,120.9964018,knee,Thunderstorm,120.9964018 of 2226H Subsided as,,
42,2023-05-20,,,2023,,Bagong Lipunan,14.53069675,120.9990098,knee,Thunderstorm,120.9990098 of 2226H Subsided as,,
43,2023-05-20,,,2023,,Bagong Sikat St. DASA,14.53113222,120.9989479,gutter,Thunderstorm,120.9989479 of 2226H Subsided as,,
44,2023-05-20,,,2023,,CANAYNAY,14.47510689,121.0011236,gutter,Southwest Monsoon/LOW PRESSURE,121.0011236 of 2145H Subsided as,,
45,2023-05-20,,,2023,San Dionisio,DIAMOND ST,,121.0014939,gutter,Southwest Monsoon/LOW PRESSURE,121.0014939 of 2235H Subsided as,,
46,2023-05-20,,,2023,,DASA PNHS,14.47873163,120.9982858,gutter,Southwest Monsoon/LOW PRESSURE,120.9982858 of 2235H Subsided as,,
47,2023-05-20,,,2023,,BIR HIDDEN,14.47555858,121.0008623,gutter,Southwest Monsoon/LOW PRESSURE,121.0008623 of 2235H,,
48,2023-05-20,,,2023,San Isidro,VILLAGE CRUZ COMPOUND GREENHEIGHTS,14.47142042,121.0110769,knee,Southwest Monsoon/LOW PRESSURE,Subsided as of 2235H Subsided as,,
49,2023-05-20,,,2023,,VILLAGE VALLE 2,14.46761195,121.0141183,waist,Southwest Monsoon/LOW PRESSURE,121.0141183 of 2130H Subsided as,,
50,2023-05-20,,,2023,,BRIDGE,14.4697662,121.0071013,knee,Southwest Monsoon/LOW PRESSURE,121.0071013 of 2235H Subsided as,,
51,2023-05-20,,,2023,Sto Niño,SITIO LIBJO,14.49997954,121.0097964,gutter,Southwest Monsoon/LOW PRESSURE,121.0097964 of 2235H Subsided as,,
52,2023-05-20,,,2023,,GOMBURZA ST.,14.50742785,120.9960109,gutter,Southwest Monsoon/LOW PRESSURE,120.9960109 of 2235H Subsided as,,
53,2023-05-20,,,2023,Tambo,SEASIDE ST. BANANA,14.51681324,120.9936602,waist,Southwest Monsoon/LOW PRESSURE,120.9936602 of 2030H Subsided as,,
54,2023-05-20,,,2023,,COMPOUND,14.50953296,121.0055982,knee,Southwest Monsoon/LOW PRESSURE,121.0055982 of 2235H Subsided as,,
55,2023-05-20,,,2023,Vitalez,GAT MENDOZA,14.50942358,121.007314,knee,Southwest Monsoon/LOW PRESSURE,121.007314 of 2200H Subsided as,,
56,2023-05-20,,,2023,,JET LANE VITALEZ,14.51006607,121.0061827,waist,Southwest Monsoon/LOW PRESSURE,121.0061827 of 2200H Subsided as,,
57,2023-05-20,,,2023,,COMPOUND PRES QUEZON,14.50996565,121.0056249,knee,Southwest Monsoon/LOW PRESSURE,121.0056249 of 2235H Subsided as,,
58,2023-05-20,,,2023,BF Homes,ST. LANCRIS,14.45486296,121.0305948,knee,Southwest Monsoon/LOW PRESSURE,121.0305948 of 2030H Subsided as,,
59,2023-05-20,,,2023,Don Bosco,RESIDENCES ILANG-ILANG,14.47562421,121.0269867,knee,Southwest Monsoon/LOW PRESSURE,121.0269867 of 2030H Subsided as,,
60,2023-05-20,,,2023,Green,STREET,14.46176407,121.0428821,gutter,Southwest Monsoon/LOW PRESSURE,121.0428821 of 2235H Subsided as,,
61,2023-05-20,,,2023,Moonwalk,TIMOTHY ST.,,121.0074246,gutter,Southwest Monsoon/LOW PRESSURE,121.0074246 of 2030H Subsided as,,
62,2023-05-20,,,2023,,AIRPORT ROAD DASA FOURTH,14.5274572,120.9991212,knee,Southwest Monsoon/LOW PRESSURE,120.9991212 of 2030H Subsided as,,
63,2023-05-20,,,2023,,ESTATE SAN ANTONIO,14.46104748,121.0274228,knee,Southwest Monsoon/LOW PRESSURE,121.0274228 of 2030H Subsided as,,
64,2023-05-20,,,2023,,BRGY. HALL AREA 2 LUPANG,14.46947669,121.0241379,waist,Southwest Monsoon/LOW PRESSURE,121.0241379 of 2030H Subsided as,,
65,2023-05-20,,,2023,San Antonio,HINIRANG SUSAFE,14.46354921,121.0316895,knee,Southwest Monsoon/LOW PRESSURE,121.0316895 of 2030H Subsided as,,
66,2023-05-20,,,2023,,STREET LOWER,14.47192745,121.0200041,waist,Southwest Monsoon/LOW PRESSURE,121.0200041 of 2030H Subsided as,,
67,2023-05-20,,,2023,San Martin De,BARANGAY SMDP BRGY,14.47233399,121.0243266,knee,Southwest Monsoon/LOW PRESSURE,121.0243266 of 2235H Subsided as,,
68,2023-05-20,,,2023,Porres,HALL SUN VALLEY,14.49456304,121.0423562,gutter,Southwest Monsoon/LOW PRESSURE,121.0423562 of 2030H Subsided as,,
69,2023-05-20,,,2023,,DRIVE SUN VALLEY,14.49164842,121.0370744,knee,Southwest Monsoon/LOW PRESSURE,121.0370744 of 2030H Subsided as,,
70,2023-05-20,,,2023,Sun Valley,SUBDIVISION ANNEX 41,14.49073559,121.0387988,knee,Southwest Monsoon/LOW PRESSURE,121.0387988 of 2030H Subsided as,,
71,2023-05-20,,,2023,,UPPER RAMOS,14.4910939,121.0328747,knee,Southwest Monsoon/LOW PRESSURE,121.0328747 of 2030H Subsided as,,
72,2023-05-20,,,2023,,COMPOUND FACTOR,14.49221323,121.0376738,gutter,,121.0376738 of 2030H,,
73,2023-05-20,,,2023,Don Galo,COMPOUND,14.50775214,120.9929467,knee,MONSOON ENHANCED BY TROPICAL,Subsided as of 2045H,,
74,2023-05-20,,,2023,San Dionisio,A. Bonifacio,14.49369678,120.9896713,knee,MONSOON ENHANCED BY TROPICAL,Subsided as of 2045H,,
75,2023-05-20,,,2023,,Camia Street,14.47234508,121.0000358,gutter,MONSOON ENHANCED BY TROPICAL,Subsided as of 2045H,,
76,2023-05-20,,,2023,,Bernabe Phase 3,14.47297956,120.9979914,knee,MONSOON ENHANCED BY TROPICAL,Subsided as of 2045H,,
77,2023-05-20,,,2023,,Sitio Libjo,14.49997954,121.0097964,knee,MONSOON ENHANCED BY TROPICAL,Subsided as of 2045H,,
78,2023-05-20,,,2023,Sto Niño,Halik Alon,14.49751656,121.0028845,knee,MONSOON ENHANCED BY TROPICAL,Subsided as of 2045H,,
79,2023-05-20,,,2023,,Pascor Drive Banana,14.50845386,120.9982638,knee,MONSOON ENHANCED BY TROPICAL,Subsided as of 2045H,,
80,2023-05-20,,,2023,Vitalez Margelo,Compound Ireneville,14.50953296,121.0055982,gutter,MONSOON ENHANCED BY TROPICAL,Subsided as of 2045H,,
81,2023-05-20,,,2023,Green,Subdivision,14.45569564,121.0312618,knee,MONSOON ENHANCED BY TROPICAL,Subsided as of 2045H,,
82,2023-05-20,,,2023,Merville,Sitio Tuyuan Infront of Baragay,14.49533584,121.0253201,gutter,MONSOON ENHANCED BY TROPICAL,Subsided as of 2045H,,
83,2023-05-20,,,2023,San Antonio,Hall,14.46947844,121.0240903,knee,MONSOON ENHANCED BY TROPICAL,Subsided as of 2045H,,
84,2023-05-20,,,2023,Sun Valley,Lower Sta. Ana,14.49429083,121.0279459,knee,MONSOON ENHANCED BY TROPICAL,Subsided as of 2045H,,
85,2023-05-20,,,2023,San Dionisio,Bernabe Phase 3,14.47297956,120.9979914,gutter,MONSOON,120.9979914,,
86,2023-05-20,,,2023,Baclaran,Opena Street,14.53116446,120.9947472,gutter,MONSOON/LOCALIZED,Subsided as of 0800H,,
87,2023-05-20,,,2023,San Dionisio,Canaynay Ave. Silverio,14.47510689,121.0011236,gutter,MONSOON/LOCALIZED,Subsided as of 0630H,,
88,2023-05-20,,,2023,San Isidro,Compound C5 Extension,14.47000734,121.011403,gutter,MONSOON/LOCALIZED,Subsided as of 0600H,,
89,2023-05-20,,,2023,,Road Back of Avida,14.48616422,120.9947446,knee,MONSOON/LOCALIZED,Subsided as of 0800H,,
90,2023-05-20,,,2023,Sto Niño,Sitio Libjo Purok 7,14.49997954,121.0097964,knee,MONSOON/LOCALIZED,Subsided as of 0820H,,
91,2023-05-20,,,2023,Moonwalk,Multinational Village DASA Fourth,14.4809384,121.0034129,knee,MONSOON/LOCALIZED,Subsided as of 0830H,,
92,2023-05-20,,,2023,,Estate,14.46104748,121.0274228,gutter,MONSOON/LOCALIZED,Subsided as of 0600H,,
93,2023-05-20,,,2023,San Antonio,SAV 1 Terminal,14.46561972,121.0206474,waist,MONSOON/LOCALIZED,Subsided as of 0600H,,
94,2023-05-20,,,2023,,Lower Barangay Seacom,14.46947844,121.0240903,gutter,MONSOON/LOCALIZED,Subsided as of 0800H,,
95,2023-05-20,,,2023,,Compound,14.4597945,121.0386618,gutter,MONSOON/LOCALIZED,Subsided as of 0730H SUBSIDED,,
96,2023-05-20,,,2023,Baclaran,Baclaran Market,14.52933372,120.9971548,knee,MONSOON ENHANCED BY SUPER,120.9971548 AS OF 1820H 02 SEPT SUBSIDED,,
97,2023-05-20,,,2023,,Bagong Ilog Bagong PAG-,14.53154406,120.997831,knee,MONSOON ENHANCED BY SUPER,120.997831 AS OF 1820H 02 SEPT SUBSIDED,,
98,2023-05-20,,,2023,,ASA,14.52922678,120.9971072,knee,MONSOON ENHANCED BY SUPER,120.9971072 AS OF 1820H 02 SEPT SUBSIDED,,
99,2023-05-20,,,2023,,Bagong Lipunan,14.53071301,120.9990338,knee,MONSOON ENHANCED BY SUPER,120.9990338 AS OF 1820H 02 SEPT SUBSIDED,,
100,2023-05-20,,,2023,,De Julio Street,14.52806727,120.9979702,gutter,MONSOON ENHANCED BY SUPER,120.9979702 AS OF 1820H 02 SEPT SUBSIDED,,
101,2023-05-20,,,2023,San Dionisio,Canaynay Ave. Diamond Street,14.47510689,121.0011236,gutter,MONSOON ENHANCED BY SUPER,121.0011236 AS OF 1820H 02 SEPT SUBSIDED,,
102,2023-05-20,,,2023,,Bernabe Phase 3,14.47282934,120.998285,knee,MONSOON ENHANCED BY SUPER,120.998285 AS OF 1820H 02 SEPT SUBSIDED,,
103,2023-05-20,,,2023,Sto Niño,Sitio Libjo,14.49997954,121.0097964,knee,MONSOON ENHANCED BY SUPER,121.0097964 AS OF 1820H 02 SEPT SUBSIDED,,
104,2023-05-20,,,2023,,Pascor Drive Lancris,14.50845386,120.9982638,gutter,MONSOON ENHANCED BY SUPER,120.9982638 AS OF 1820H 02 SEPT SUBSIDED,,
105,2023-05-20,,,2023,Don Bosco,Residences,14.47562421,121.0269867,gutter,MONSOON ENHANCED BY SUPER,121.0269867 AS OF 1820H 02 SEPT SUBSIDED,,
106,2023-05-20,,,2023,,Texas Extension,14.48852033,121.021558,knee,,121.021558 AS OF 1820H 02 SEPT SUBSIDED,,
107,2023-05-20,,,2023,,Bagong Ilog,14.53154406,120.997831,gutter,LPA/LOCALIZED THUNDERSTORMS,AS OF 2110H 28 SEPT SUBSIDED,,
108,2023-05-20,,,2023,Baclaran,Bagong Sikat St.,14.53113222,120.9989479,gutter,LPA/LOCALIZED THUNDERSTORMS,AS OF 2110H 28 SEPT SUBSIDED,,
109,2023-05-20,,,2023,,Dimasalang St.,14.53038217,120.9964018,knee,LPA/LOCALIZED THUNDERSTORMS,AS OF 2110H 28 SEPT SUBSIDED,,
110,2023-05-20,,,2023,La Huerta,Perpetual Village,14.49463607,120.9999456,knee,LPA/LOCALIZED THUNDERSTORMS,AS OF 2300H 28 SEPT SUBSIDED,,
111,2023-05-20,,,2023,,Dahlia St Diamond St.,14.50271432,120.9943086,knee,LPA/LOCALIZED THUNDERSTORMS,AS OF 2300H 28 SEPT SUBSIDED,,
112,2023-05-20,,,2023,,Bernabe Phase 3,14.47282934,120.998285,gutter,LPA/LOCALIZED THUNDERSTORMS,AS OF 2300H 28 SEPT SUBSIDED,,
113,2023-05-20,,,2023,,Canaynay Ave. Himalayang,14.47510689,121.0011236,gutter,LPA/LOCALIZED THUNDERSTORMS,AS OF 2113H 28 SEPT SUBSIDED,,
114,2023-05-20,,,2023,,Palanyag,14.48895985,120.9888521,gutter,LPA/LOCALIZED THUNDERSTORMS,AS OF 2208H 28 SEPT SUBSIDED,,
115,2023-05-20,,,2023,San Dionisio,PNHS Main,14.47873163,120.9982858,knee,LPA/LOCALIZED THUNDERSTORMS,AS OF 2208H 28 SEPT SUBSIDED,,
116,2023-05-20,,,2023,,Villanueva,14.47571769,121.0010605,gutter,LPA/LOCALIZED THUNDERSTORMS,AS OF 2300H 28 SEPT SUBSIDED,,
117,2023-05-20,,,2023,,Olivarez College,14.47935817,120.9977099,waist,LPA/LOCALIZED THUNDERSTORMS,AS OF 2300H 28 SEPT SUBSIDED,,
118,2023-05-20,,,2023,,Palanyag Road,14.47409898,120.99821,gutter,LPA/LOCALIZED THUNDERSTORMS,AS OF 2208H 28 SEPT SUBSIDED,,
119,2023-05-20,,,2023,,Wilcon Depot,14.48118416,120.9967039,knee,LPA/LOCALIZED THUNDERSTORMS,AS OF 2300H 28 SEPT SUBSIDED,,
120,2023-05-20,,,2023,,SM Sucat,14.48367769,120.9948487,knee,LPA/LOCALIZED THUNDERSTORMS,AS OF 2300H 28 SEPT SUBSIDED,,
121,2023-05-20,,,2023,,Greenheights Mahogany,14.46772194,121.0141733,knee,LPA/LOCALIZED THUNDERSTORMS,AS OF 2120H 28 SEPT SUBSIDED,,
122,2023-05-20,,,2023,San Isidro,Camela,14.47644141,121.0207709,chest,LPA/LOCALIZED THUNDERSTORMS,AS OF 2120H 28 SEPT SUBSIDED,,
123,2023-05-20,,,2023,,San Felipe St.,14.46956424,121.005915,knee,LPA/LOCALIZED THUNDERSTORMS,AS OF 2120H 28 SEPT SUBSIDED,,
124,2023-05-20,,,2023,,JP Rizal St.,14.47384385,121.0086206,gutter,LPA/LOCALIZED THUNDERSTORMS,AS OF 2120H 28 SEPT SUBSIDED,,
125,2023-05-20,,,2023,Sto. Nino,Libjo Area,14.50130356,121.010345,gutter,LPA/LOCALIZED THUNDERSTORMS,AS OF 2113H 28 SEPT SUBSIDED,,
126,2023-05-20,,,2023,,Pascor Drive,14.50845386,120.9982638,knee,LPA/LOCALIZED THUNDERSTORMS,AS OF 2113H 28 SEPT SUBSIDED,,
127,2023-05-20,,,2023,Tambo,Aseana,14.524763,120.9872665,knee,LPA/LOCALIZED THUNDERSTORMS,AS OF 1909H 28 SEPT SUBSIDED,,
128,2023-05-20,,,2023,,Diokno,14.52468265,120.9852133,knee,LPA/LOCALIZED THUNDERSTORMS,AS OF 1909H 28 SEPT SUBSIDED,,
129,2023-05-20,,,2023,Vitalez,Urma Drive,14.5103574,121.0057447,knee,LPA/LOCALIZED THUNDERSTORMS,AS OF 1936H 28 SEPT SUBSIDED,,
130,2023-05-20,,,2023,BF Homes,SM BF,14.45776072,121.0335732,gutter,LPA/LOCALIZED THUNDERSTORMS,AS OF 1736H 28 SEPT SUBSIDED,,
131,2023-05-20,,,2023,,Quezon St.,14.45612018,121.0310446,gutter,LPA/LOCALIZED THUNDERSTORMS,AS OF 1905H 28 SEPT SUBSIDED,,
132,2023-05-20,,,2023,,Brgy. Hall,14.44594935,121.0274015,gutter,LPA/LOCALIZED THUNDERSTORMS,AS OF 1905H 28 SEPT SUBSIDED,,
133,2023-05-20,,,2023,,Gate 2 Lagoon Creek,14.4640813,121.0298368,waist,LPA/LOCALIZED THUNDERSTORMS,AS OF 1905H 28 SEPT SUBSIDED,,
134,2023-05-20,,,2023,,Side Phase 3 BF Entrance,14.45576397,121.0114591,gutter,LPA/LOCALIZED THUNDERSTORMS,AS OF 1913H 28 SEPT SUBSIDED,,
135,2023-05-20,,,2023,,Lopez Ave.,14.46724708,121.0100592,knee,LPA/LOCALIZED THUNDERSTORMS,AS OF 1913H 28 SEPT SUBSIDED,,
136,2023-05-20,,,2023,,Annex 35 Doña Soledad,14.48792057,121.0299926,gutter,LPA/LOCALIZED THUNDERSTORMS,AS OF 1753H 28 SEPT SUBSIDED,,
137,2023-05-20,,,2023,,Extension,14.48581131,121.0282639,knee,LPA/LOCALIZED THUNDERSTORMS,AS OF 1850H 28 SEPT SUBSIDED,,
138,2023-05-20,,,2023,Don Bosco,El Dorado School Lancris,14.479765,121.0209788,knee,LPA/LOCALIZED THUNDERSTORMS,AS OF 2050H 28 SEPT SUBSIDED,,
139,2023-05-20,,,2023,,Residences,14.47562421,121.0269867,gutter,LPA/LOCALIZED THUNDERSTORMS,AS OF 1753H 28 SEPT SUBSIDED,,
140,2023-05-20,,,2023,,Russia St. San Lorenzo Ruis,14.4854841,120.9878593,waist,LPA/LOCALIZED THUNDERSTORMS,AS OF 1850H 28 SEPT SUBSIDED,,
141,2023-05-20,,,2023,,St.,14.48485965,121.0303737,knee,LPA/LOCALIZED THUNDERSTORMS,AS OF 1850H 28 SEPT SUBSIDED,,
142,2023-05-20,,,2023,Moonwalk,Airport Village Jordan Cor.,14.4911872,121.0193525,knee,LPA/LOCALIZED THUNDERSTORMS,AS OF 2100H 28 SEPT SUBSIDED,,
143,2023-05-20,,,2023,,Daang Batang DASA Fourth,14.49242351,121.0086578,waist,LPA/LOCALIZED THUNDERSTORMS,AS OF 1900H 28 SEPT SUBSIDED,,
144,2023-05-20,,,2023,,Estate,14.46104748,121.0274228,knee,LPA/LOCALIZED THUNDERSTORMS,AS OF 1819H 28 SEPT SUBSIDED,,
145,2023-05-20,,,2023,,Banner Ave.,14.46258244,121.0309197,knee,LPA/LOCALIZED THUNDERSTORMS,AS OF 1937H 28 SEPT SUBSIDED,,
146,2023-05-20,,,2023,,Back of Jaka,14.46549034,121.0193964,knee,LPA/LOCALIZED THUNDERSTORMS,AS OF 1937H 28 SEPT SUBSIDED,,
147,2023-05-20,,,2023,,San Pablo,14.46789286,121.0233618,knee,LPA/LOCALIZED THUNDERSTORMS,AS OF 1937H 28 SEPT SUBSIDED,,
148,2023-05-20,,,2023,San Antonio,Valley 3,14.4722229,121.0238262,knee,LPA/LOCALIZED THUNDERSTORMS,AS OF 1937H 28 SEPT SUBSIDED,,
149,2023-05-20,,,2023,,Sta. Lucia KFC San Antonio,14.47076004,121.020565,knee,LPA/LOCALIZED THUNDERSTORMS,AS OF 1937H 28 SEPT SUBSIDED,,
150,2023-05-20,,,2023,,Ave.,14.46512671,121.0199027,knee,LPA/LOCALIZED THUNDERSTORMS,AS OF 1850H 28 SEPT SUBSIDED,,
151,2023-05-20,,,2023,,Scholastica St.,14.47140702,121.0241495,knee,LPA/LOCALIZED THUNDERSTORMS,AS OF 1937H 28 SEPT SUBSIDED,,
152,2023-05-20,,,2023,,Brgy. Village,14.46696875,121.0244473,knee,LPA/LOCALIZED THUNDERSTORMS,AS OF 1937H 28 SEPT SUBSIDED,,
153,2023-05-20,,,2023,San Martin De,Valley 5,14.47170978,121.0287222,knee,LPA/LOCALIZED THUNDERSTORMS,AS OF 1852H 28 SEPT SUBSIDED,,
154,2023-05-20,,,2023,Porres,Health Center,14.49445184,121.0427319,gutter,LPA/LOCALIZED THUNDERSTORMS,AS OF 1915H 28 SEPT SUBSIDED,,
155,2023-05-20,,,2023,,Sitio Sto Niño East Service,14.47254436,121.0450004,gutter,LPA/LOCALIZED THUNDERSTORMS,AS OF 1915H 28 SEPT SUBSIDED,,
156,2023-05-20,,,2023,,Road Front of Brgy. Hall,14.49439707,121.0422871,knee,LPA/LOCALIZED THUNDERSTORMS,AS OF 1916H 28 SEPT SUBSIDED,,
157,2023-05-20,,,2023,,Lower Sta. Ana,14.49429083,121.0279459,knee,LPA/LOCALIZED THUNDERSTORMS,AS OF 1925H 28 SEPT SUBSIDED,,
158,2023-05-20,,,2023,Sun Valley,Sun Valley Drive West Service,14.49164842,121.0370744,knee,LPA/LOCALIZED THUNDERSTORMS,AS OF 1934H 28 SEPT SUBSIDED,,
159,2023-05-20,,,2023,,Road F. Serrano,14.47345847,121.0450124,knee,LPA/LOCALIZED THUNDERSTORMS,AS OF 1934H 28 SEPT SUBSIDED,,
160,2023-05-20,,,2023,,School DASA Fourth,14.48873424,121.0260571,knee,LPA/LOCALIZED THUNDERSTORMS,AS OF 1934H 28 SEPT SUBSIDED,,
161,2023-05-20,,,2023,San Antonio,Estate Saint Martin,14.46104748,121.0274228,gutter,LOCALIZED THUNDERSTORMS,AS OF 0035H 21 OCT SUBSIDED,,
162,2023-05-20,,,2023,,Street,14.46221925,121.0318478,AS OF 0035H level 21 oct,LOCALIZED THUNDERSTORMS,AS OF 0035H 21 OCT,,
1,,,,2023,,Bernabe Phase 3,14.47282934,120.998285,knee,Thunderstorm,120.998285 of 1400H Subsided as,,
2,,,,2023,,Canaynay Ave.,14.47510689,121.0011236,gutter,Thunderstorm,121.0011236 of 1230H Subsided as,,
3,,,,2023,,PNHS Main,14.47867039,120.9983694,gutter,Thunderstorm,120.9983694 of1230H Subsided as,,
4,,,,2023,,Wilcon Depot Lire Lane St.,14.48118416,120.9967039,gutter,Thunderstorm,120.9967039 of1230H Subsided as,,
5,,,,2023,San Dionisio,VIllanueva Village Olivarez,14.47641048,121.0016749,gutter,Thunderstorm,121.0016749 of 1400H,,
1,2024-06-07,6.0,7.0,2024,,June Ave Gutter Level,14.475073910005506,,gutter,,,,
2,2024-06-07,6.0,7.0,2024,,June Gatchalian Knee Level,14.474189978570331,,knee,,,,
3,2024-06-07,6.0,7.0,2024,,June San Dionisio SM Sucat Gutter Level,14.484014007435768,,gutter,,,,
4,2024-06-07,6.0,7.0,2024,,June San Isidro Ave. Waist Level,14.47236131739471,,waist,,,,
5,2024-06-07,6.0,7.0,2024,,June Sitio Libjo Waist Level,14.500206764635475,,waist,,,,
6,2024-06-07,6.0,7.0,2024,,June Sto. Ni,14.46334602197292,,knee,,,,
7,2024-06-07,6.0,7.0,2024,,June El Dorado Knee Level,14.479764999578846,,knee,,,,
8,2024-06-07,6.0,7.0,2024,,June Ruiz Knee Level,14.485042991870833,,knee,,,,
9,2024-06-07,6.0,7.0,2024,,June High School Knee Level,14.479968820877692,,knee,,,,
10,2024-06-07,6.0,7.0,2024,,June France Street Gutter Level,14.48423817578842,,gutter,,,,
11,2024-06-07,6.0,7.0,2024,,June Malaca,14.47562420639654,,knee,,,,
12,2024-06-07,6.0,7.0,2024,,June DonBosco Compound Knee Level,14.48495174564014,,knee,,,,
13,2024-06-07,6.0,7.0,2024,,June Marcelo Green Ilang,14.461764071079768,,gutter,,,,
14,2024-06-07,6.0,7.0,2024,,June Ireneville Gutter Level,14.476474948627438,,gutter,,,,
15,2024-06-07,6.0,7.0,2024,,June Motorola Gutter Level,14.476470900931758,,gutter,,,,
16,2024-06-07,6.0,7.0,2024,,June Napa Street Knee Level,14.470745747304356,,knee,,,,
17,2024-06-07,6.0,7.0,2024,,June Creekside Gutter Level Subsided,14.463329814586718,,gutter,,,,
18,2024-06-07,6.0,7.0,2024,,June Armela St Knee Level Subsided,14.470017156810366,,knee,,,,
19,2024-06-07,6.0,7.0,2024,,June Valley,14.472764738170182,,knee,,,,
20,2024-06-07,6.0,7.0,2024,,June San Antonio Bridge Knee Level,14.471649383275464,,knee,,,,
21,2024-06-07,6.0,7.0,2024,,June Porres Ni,14.472654037758868,,knee,,,,
22,2024-06-07,6.0,7.0,2024,,June Sun Valley Annex,14.491435843589,,knee,,,,
23,2024-06-23,6.0,23.0,2024,,June France Street Gutter Level Subsided,14.481514360482889,,gutter,,,,
24,2024-06-23,6.0,23.0,2024,,June DonBosco Russia Street Gutter Level Subsided,14.486614537055434,,gutter,,,,
25,2024-06-23,6.0,23.0,2024,,June Sito Wella Waist Level Subsided,14.507113708313184,,waist,,,,
26,2024-06-23,6.0,23.0,2024,,June Merville Sta Agueda Waist Level Subsided,14.503944143445306,,waist,,,,
30,2024-07-24,7.0,24.0,2024,,July Baclaran Extension Knee Level,14.529068331163138,,knee,,,,
123,2024-07-28,7.0,28.0,2024,,July San Dionisio Wilcon Gutter Level Monsoon,14.4811841557345,,gutter,,,,
135,2024-08-04,8.0,4.0,2024,,August Moonwalk Batang Knee Level Thunderstorms,14.492423506680684,,knee,,,,
27,,,,2024,,Bagong Ilog Knee Level,14.53159177364007,,knee,,,,
28,,,,2024,,St. Knee Level,14.532430901474662,,knee,,,,
29,,,,2024,,Bagong Sikat Knee Level MONSOON,14.532711439110871,,knee,,,,
31,,,,2024,,Extension Knee Level,14.53036120648728,,knee,,,,
32,,,,2024,,Lipunan St Knee Level,14.530901496194062,,knee,,,,
33,,,,2024,,Silang,14.531767112203603,,knee,,,,
34,,,,2024,,Street Gutter Level,14.531392898208468,,gutter,,,,
35,,,,2024,,Extension Waist Level,14.529014184716443,,waist,,,,
36,,,,2024,,Street Gutter Level,14.531338639424476,,gutter,,,,
37,,,,2024,,Help Village Gutter Level,14.494926308418073,,gutter,,,,
38,,,,2024,,Street Gutter Level,14.499402125420744,,gutter,,,,
39,,,,2024,,La Huerta M. Rodriguez Gutter Level,14.500720311864196,,gutter,,,,
40,,,,2024,,Peter Knee Level,14.481908898868673,,knee,,,,
41,,,,2024,,San Dionisio DASA PNHS Knee Level,14.4786703879674,,knee,,,,
42,,,,2024,,Coastal Waist Level,14.488876170973864,,waist,,,,
44,,,,2024,,Southbound,14.474902622808647,,knee,,,,
45,,,,2024,,Southbound,14.484232354038618,,knee,,,,
46,,,,2024,,Gatchalian,14.481804221216493,,waist,,,,
47,,,,2024,,Ave Knee Level,14.469333797321422,,knee,,,,
48,,,,2024,,Topland Waist Level,14.4713932432849,,waist,,,,
49,,,,2024,,Gatchalian,14.47525847518668,,waist,,,,
50,,,,2024,,Street Waist Level,14.490414525087248,,waist,,,,
51,,,,2024,,Street Waist Level,14.476985120731806,,waist,,,,
52,,,,2024,,Tramo,14.488655258905634,,waist,,,,
53,,,,2024,,Subdivision Knee Level,14.47862740173645,,knee,,,,
54,,,,2024,,Kay Talise Waist Level,14.479026065340584,,waist,,,,
55,,,,2024,,Northbound,14.47400350965944,,gutter,,,,
56,,,,2024,,Associaton Knee Level,14.476343858877067,,knee,,,,
57,,,,2024,,Waist Level,14.470850168446994,,waist,,,,
58,,,,2024,,Waist Level,14.471420424097191,,waist,,,,
59,,,,2024,,Creekside Waist Level,14.471420424097191,,waist,,,,
60,,,,2024,,Chest Level,14.471433766085376,,chest,,,,
61,,,,2024,,Waist Level,14.469776644805169,,waist,,,,
62,,,,2024,,Creekside Chest Level,14.47023198538167,,chest,,,,
63,,,,2024,,Riverville Knee Level,14.460244455136388,,knee,,,,
64,,,,2024,,San Isidro Estate Waist Level,14.473521620946384,,waist,,,,
65,,,,2024,,Compound Waist Level,14.509965645772857,,waist,,,,
66,,,,2024,,Halik Alon Chest Level,14.4975165646766,,chest,,,,
67,,,,2024,,Pascor Drive Knee Level,14.508453859568544,,knee,,,,
68,,,,2024,,Sitio Libjo Waist Level,14.499979544031826,,waist,,,,
69,,,,2024,,Kaingin Chest Level,14.497002182279832,,chest,,,,
70,,,,2024,,Sto. Ni,14.49747850445389,,chest,,,,
71,,,,2024,,Mayuga Dulo Waist Level,14.516521188074677,,waist,,,,
72,,,,2024,,Dulo Knee Level,14.517624369782762,,knee,,,,
73,,,,2024,,Kabesa Knee Level,14.51400231564208,,knee,,,,
74,,,,2024,,to STC Knee Level,14.516985855513736,,knee,,,,
75,,,,2024,,Tambo Leon Knee Level,14.5121661598324,,knee,,,,
76,,,,2024,,Vitalez Bridge Waist Level,14.509532956419363,,waist,,,,
77,,,,2024,,Compound Waist Level,14.509965645772857,,waist,,,,
78,,,,2024,,Alejandro St Knee Level,14.509528560953378,,knee,,,,
79,,,,2024,,Jet Plain Knee Level,14.510066071288668,,knee,,,,
80,,,,2024,,Gat Mendoza Knee Level,14.509423580668075,,knee,,,,
81,,,,2024,,Compound Knee Level,14.510684985069586,,knee,,,,
82,,,,2024,,BF Homes Phase,14.455763973789402,,waist,,,,
83,,,,2024,,Don Bosco Compound Waist Level,14.492530653622772,,waist,,,,
84,,,,2024,,Napa Street Knee Level,14.470010963324352,,knee,,,,
85,,,,2024,,Ilang,14.461764071079768,,knee,,,,
86,,,,2024,,Creekville Knee Level,14.470732558279389,,knee,,,,
87,,,,2024,,Compound Gutter Level,14.470015759547934,,gutter,,,,
88,,,,2024,,Marcelo Green Compound Knee Level,14.477914113594167,,knee,,,,
89,,,,2024,,Road Seaoil Waist Level,14.504688371016089,,waist,,,,
90,,,,2024,,Manggahan,14.506139206118467,,chest,,,,
91,,,,2024,,Cubic Side Knee Level,14.497003869375725,,knee,,,,
92,,,,2024,,Merville Subdivision Knee Level,14.498245549411694,,knee,,,,
93,,,,2024,,Bulaong Uno Knee Level,14.491383959985088,,knee,,,,
94,,,,2024,,Phase,14.492342486705894,,knee,,,,
95,,,,2024,,Batang Knee Level,14.492454416576637,,knee,,,,
96,,,,2024,,Gate,14.48093840292284,,waist,,,,
97,,,,2024,,Airport Village Knee Level,14.48989659417174,,knee,,,,
98,,,,2024,,Scarlet Street Chest Level,14.49589281318393,,chest,,,,
99,,,,2024,,Multinational Chest Level,14.480975393724195,,chest,,,,
100,,,,2024,,Moonwalk Area B Chest Level,14.527457201452243,,chest,,,,
101,,,,2024,,Kenko Chest Level,14.501454920542589,,chest,,,,
102,,,,2024,,Brdige Chest Level,14.499847584551809,,chest,,,,
103,,,,2024,,Phase,14.499470408804097,,chest,,,,
104,,,,2024,,School Gutter Level,14.486087741154256,,gutter,,,,
105,,,,2024,,Gutter Level,14.49377279745634,,gutter,,,,
106,,,,2024,,School Gutter Level,14.461097514112586,,gutter,,,,
107,,,,2024,,Barangay Chest Level,14.469478439005677,,chest,,,,
108,,,,2024,,Southbound,14.4610474834533,,gutter,,,,
109,,,,2024,,Valley,14.4610474834533,,gutter,,,,
110,,,,2024,,Ferrer Waist Level,14.46869770438664,,waist,,,,
111,,,,2024,,San Antonio estate Knee Level,14.46258243785841,,knee,,,,
112,,,,2024,,Barangay Hall Knee Level,14.469565755511578,,knee,,,,
113,,,,2024,,fourth estate Knee Level,14.462976801532228,,knee,,,,
114,,,,2024,,Brgy. Hall Gutter Level,14.494397069737978,,gutter,,,,
115,,,,2024,,Porres Ni,14.47254436265839,,waist,,,,
116,,,,2024,,Annex,14.491648423298209,,waist,,,,
117,,,,2024,,Sun Valley,14.494290827928694,,knee,,,,
118,,,,2024,,Topland Knee Level,14.470650797505415,,knee,,,,
119,,,,2024,,PNHS Gutter Level,14.4787316330279,,gutter,,,,
120,,,,2024,,SM Sucat Gutter Level,14.483677694929094,,gutter,,,,
121,,,,2024,,Olivarez Gutter Level,14.472979555821,,gutter,,,,
122,,,,2024,,Village Knee Level,14.47571768588381,,knee,,,,
124,,,,2024,,Palanyag RD Knee Level,14.48895985291295,,knee,,,,
125,,,,2024,,Greenhills Knee Level,14.478185227320033,,knee,,,,
126,,,,2024,,Gatchalian,14.481804221216493,,knee,,,,
127,,,,2024,,San Antonio Ferrer Knee Level,14.46869770438664,,knee,,,,
128,,,,2024,,EvacomDASA Gutter Level,14.475444108710176,,gutter,,,,
129,,,,2024,,PNHS Knee Level,14.4787316330279,,knee,,,,
130,,,,2024,,Olivarez Knee Level,14.472979555821,,knee,,,,
131,,,,2024,,San Dionisio SM Sucat Gutter Level,14.483677694929094,,gutter,,,,
132,,,,2024,,Ave. Gutter Level,14.480406954006517,,gutter,,,,
133,,,,2024,,Russia Street Gutter Level,14.485660766915188,,gutter,,,,
134,,,,2024,,Don Bosco Science Ville Gutter Level,14.484016000822844,,gutter,,,,
136,,,,2024,,Sto. Ni,14.493765497057131,,gutter,,,,
137,,,,2024,,Terminal Gutter Level,14.492941677832762,,gutter,,,,
138,,,,2024,,Ferrer Waist Level,14.46869770438664,,waist,,,,
139,,,,2024,,Fourth Estate Knee Level,14.46258243785841,,knee,,,,
140,,,,2024,,Valley,14.465055092761252,,gutter,,,,
141,,,,2024,,Montecarlo Knee Level,14.465667936562904,,knee,,,,
142,,,,2024,,Sta. Lucia Knee Level,14.470734560748626,,knee,,,,
143,,,,2024,,San Antonio Sta. Catalina Knee Level,14.47166605113003,,knee,,,,
144,,,,2024,,Annex,14.491093902626648,,waist,,,,
145,,,,2024,,Drive Gutter Level,14.491648423298209,,gutter,,,,
146,,,,2024,,Zone,14.493852915674193,,gutter,,,,
147,,,,2024,,Sun Valley Zone,14.494521759939726,,gutter,,,,
148,,,,2024,,Zone,14.491567490389132,,gutter,,,,
149,,,,2024,,Zone,14.488749544111243,,gutter,,,,
150,,,,2024,,Zone,14.49389908477068,,gutter,,,,
151,,,,2024,,Baclaran St. Gutter Level September,14.532430901474662,,gutter,,,,
152,,,,2024,,Don Galo Riverside Knee Level September,14.505876406012373,,knee,,,,
153,,,,2024,,Village Knee Level,14.475956511577415,,knee,,,,
154,,,,2024,,Topland Knee Level,14.470650797505415,,knee,,,,
155,,,,2024,,Ave. Knee Level,14.4751068897091,,knee,,,,
156,,,,2024,,Southbound,14.48476760128568,,knee,,,,
157,,,,2024,,September San Dionisio,14.484859712588817,,knee,,,,
158,,,,2024,,PNHS Main Knee Level,14.4787316330279,,knee,,,,
160,,,,2024,,Wilcon Depot Knee Level,14.4811841557345,,knee,,,,
161,,,,2024,,Subd. Knee Level,14.478698809148534,,knee,,,,
162,,,,2024,,Coastal Knee Level,14.488640932656116,,knee,,,,
163,,,,2024,,College Gutter Level,14.472979555821,,gutter,,,,
164,,,,2024,,Quirino Knee Level,14.490606568911028,,knee,,,,
165,,,,2024,,Gatchalian,14.47525847518668,,gutter,,,,
166,,,,2024,,San Isidro Valley,14.467307570585012,,knee,,,,
167,,,,2024,,Compound Gutter Level,14.470007344293688,,gutter,,,,
168,,,,2024,,Orthodox Knee Level,14.465512646376936,,knee,,,,
169,,,,2024,,Fortunata Waist Level,14.47129373151303,,waist,,,,
170,,,,2024,,Village DASA Knee Level,14.47400350965944,,knee,,,,
171,,,,2024,,Valley,14.469766203556002,,waist,,,,
172,,,,2024,,Village Knee Level,14.467611950920888,,knee,,,,
173,,,,2024,,a Area,14.45792916433258,,knee,,,,
174,,,,2024,,Sitio Libjo Knee Level,14.499979544031826,,knee,,,,
175,,,,2024,,Sto. Ni,14.49747850445389,,knee,,,,
176,,,,2024,,Pascor Drive Gutter Level,14.508453859568544,,gutter,,,,
177,,,,2024,,Tambo Dulo Knee Level,14.516521188074677,,knee,,,,
178,,,,2024,,Teoville Ave. Knee Level,14.454050846261849,,knee,,,,
179,,,,2024,,Clinic Ville Knee Level,14.451665154992885,,knee,,,,
180,,,,2024,,BF Homes Site II Waist Level,14.459772609740565,,waist,,,,
181,,,,2024,,High School Knee Level,14.479764999578846,,knee,,,,
182,,,,2024,,Russia St. Gutter Level,14.48548409615394,,gutter,,,,
183,,,,2024,,Don Bosco Ruiz Waist Level,14.484859652745868,,waist,,,,
184,,,,2024,,Merville Sitio Wella Knee Level,14.507073448379362,,knee,,,,
185,,,,2024,,Station Waist Level,14.485560148510828,,waist,,,,
186,,,,2024,,Moonwalk Village Gutter Level,14.489271909035525,,gutter,,,,
187,,,,2024,,Northbound,14.4610474834533,,waist,,,,
188,,,,2024,,Hinirang Waist Level,14.463549211674886,,waist,,,,
189,,,,2024,,Valley,14.465147151764748,,gutter,,,,
190,,,,2024,,Valley,14.472222901131069,,waist,,,,
191,,,,2024,,Barangay Chest Level,14.469478439005677,,chest,,,,
193,,,,2024,,Annex,14.491093902626648,,knee,,,,
194,,,,2024,,Drive Gutter Level,14.48821971120393,,gutter,,,,
195,,,,2024,,Hall,14.49772184527398,,gutter,,,,
197,,,,2024,,Sta. Ana Knee Level,14.494290827928694,,knee,,,,
198,,,,2024,,Gutter Level,14.475440664196226,,gutter,,,,
200,,,,2024,,Gutter Level,14.488731188341198,,gutter,,,,
201,,,,2024,,Gutter Level,14.490461025593168,,gutter,,,,
202,,,,2024,,Gutter Level,14.48349607677122,,gutter,,,,
244,2025-01-08,1.0,8.0,2025,,244 Storm Crising 23 July2025 1,14.48112178,,knee,,,,
250,2025-01-08,1.0,8.0,2025,,250 Storm Crising 23 July2025 1,14.48112178,,gutter,,,,
352,2025-01-08,1.0,8.0,2025,,352 Nando 025 1,14.48112178,,gutter,,,,
362,2025-01-08,1.0,8.0,2025,,362 Opong 025 1,14.48112178,,gutter,,,,
291,2025-03-25,3.0,25.0,2025,,291 1550H Green ° 2025,14.49393854208995,,knee,,,,
292,2025-03-25,3.0,25.0,2025,,292 1550H Green ° 2025,14.470934893848796,,knee,,,,
293,2025-03-25,3.0,25.0,2025,,293 1550H Green ° 2025,14.470602225057428,,gutter,,,,
1,2025-05-06,5.0,6.0,2025,,) Level 8 Easterlies 1,14.461084936317045,,gutter,Easterlies,,,
2,2025-05-06,5.0,6.0,2025,,Antonio Ave. Level 8 Easterlies 1,14.464863417205557,,gutter,Easterlies,,,
3,2025-05-06,5.0,6.0,2025,,nd) Level 8 Easterlies 1,14.457606753585544,,gutter,Easterlies,,,
4,2025-05-06,5.0,6.0,2025,,Antonio Level 8 Easterlies 1,14.462469187579911,,knee,Easterlies,,,
5,2025-05-12,5.0,12.0,2025,,) Level 19 Easterlies 1,14.478585115329809,,chest,Easterlies,,,
6,2025-05-12,5.0,12.0,2025,,Level 45 Easterlies 1,14.499879060866066,,gutter,Easterlies,,,
7,2025-05-12,5.0,12.0,2025,,Bosco Soledad Level 8 Easterlies 1,14.486468830290727,,gutter,Easterlies,,,
8,2025-05-12,5.0,12.0,2025,,) Level 8 Easterlies 1,14.478580473257097,,knee,Easterlies,,,
9,2025-05-12,5.0,12.0,2025,,Mendoza Level 19 Easterlies 1,14.50957751280398,,gutter,Easterlies,,,
10,2025-05-12,5.0,12.0,2025,,) Level 8 Easterlies 1,14.461084936317045,,knee,Easterlies,,,
11,2025-05-12,5.0,12.0,2025,,Cmpd. Rd. Level 19 Easterlies 1,14.465833460136432,,knee,Easterlies,,,
12,2025-05-12,5.0,12.0,2025,,) Level 19 Easterlies 1,14.49084754900224,,gutter,Easterlies,,,
13,2025-05-12,5.0,12.0,2025,,Avenue Level 8 Easterlies 1,14.47517951255734,,knee,Easterlies,,,
14,2025-05-12,5.0,12.0,2025,,Extension Level 19 Easterlies 1,14.496244268459511,,knee,Easterlies,,,
15,2025-05-13,5.0,13.0,2025,,Medina Level 19 Easterlies 1,14.49084754900224,,gutter,Easterlies,,,
16,2025-05-13,5.0,13.0,2025,,) Level 8 Easterlies 1,14.481072827464269,,gutter,Easterlies,,,
17,2025-05-13,5.0,13.0,2025,,) Level 8 Easterlies 1,14.48112178,,gutter,Easterlies,,,
18,2025-05-13,5.0,13.0,2025,,Dionisio Level 8 Easterlies 1,14.47517951255734,,chest,Easterlies,,,
19,2025-05-13,5.0,13.0,2025,,Halik Alon Level 45 Easterlies 1,14.498917412564106,,knee,Easterlies,,,
20,2025-05-13,5.0,13.0,2025,,Extension Level 19 Easterlies 1,14.496244268459511,,knee,Easterlies,,,
21,2025-05-13,5.0,13.0,2025,,Cmpd. Rd. Level 19 Easterlies 1,14.465833460136432,,knee,Easterlies,,,
22,2025-05-13,5.0,13.0,2025,,Mendoza Level 19 Easterlies 1,14.50957751280398,,knee,Easterlies,,,
24,2025-06-07,6.0,7.0,2025,,Quirino Ave. Level 19 Monsoon 1,14.53147613718054,,knee,Monsoon,,,
25,2025-06-07,6.0,7.0,2025,,Bagong Level 19 Monsoon 1,14.531136514380496,,gutter,Monsoon,,,
26,2025-06-07,6.0,7.0,2025,,Street Level 8 Monsoon 1,14.531223277759253,,gutter,Monsoon,,,
27,2025-06-07,6.0,7.0,2025,,Street Level 8 Monsoon 1,14.531105328894384,,knee,Monsoon,,,
28,2025-06-07,6.0,7.0,2025,,Silang Street Level 19 Monsoon 1,14.531733356578126,,gutter,Monsoon,,,
29,2025-06-07,6.0,7.0,2025,,St. Level 8 Monsoon 1,14.532359024342464,,gutter,Monsoon,,,
30,2025-06-07,6.0,7.0,2025,,4 De Julio Level 8 Monsoon 1,14.528067997127254,,knee,Monsoon,,,
31,2025-06-07,6.0,7.0,2025,,Pascor Drive Level 19 Monsoon 1,14.508762320423765,,knee,Monsoon,,,
32,2025-06-07,6.0,7.0,2025,,Sitio Libjo Level 19 Monsoon 1,14.499879060866066,,knee,Monsoon,,,
33,2025-06-07,6.0,7.0,2025,,Road Level 19 Monsoon 1,14.498589511798034,,knee,Monsoon,,,
34,2025-06-07,6.0,7.0,2025,,Mendoza Level 19 Monsoon 1,14.50957751280398,,waist,Monsoon,,,
35,2025-06-07,6.0,7.0,2025,,Cmpd. Level 37 Monsoon 1,14.468809635724792,,gutter,Monsoon,,,
36,2025-06-07,6.0,7.0,2025,,) Level 8 Monsoon 1,14.46081616541042,,knee,Monsoon,,,
37,2025-06-07,6.0,7.0,2025,,Bosco Cmpd. Level 19 Monsoon 1,14.510492923295596,,gutter,Monsoon,,,
38,2025-06-07,6.0,7.0,2025,,Bosco Guam Street Level 8 Monsoon 1,14.4824325212493,,gutter,Monsoon,,,
39,2025-06-07,6.0,7.0,2025,,Bosco Un Spratly Level 8 Monsoon 1,14.485388662633744,,gutter,Monsoon,,,
40,2025-06-07,6.0,7.0,2025,,Bosco India Street Level 8 Monsoon 1,14.480719527484188,,gutter,Monsoon,,,
41,2025-06-07,6.0,7.0,2025,,Bosco UN cor. USA Level 8 Monsoon 1,14.486382261907591,,knee,Monsoon,,,
42,2025-06-07,6.0,7.0,2025,,Extn. Level 19 Monsoon 1,14.48644546133539,,gutter,Monsoon,,,
43,2025-06-07,6.0,7.0,2025,,Bosco Street Level 8 Monsoon 1,14.483076791479052,,knee,Monsoon,,,
44,2025-06-07,6.0,7.0,2025,,Bosco Ave. Level 19 Monsoon 1,14.482874843867062,,gutter,Monsoon,,,
45,2025-06-07,6.0,7.0,2025,,Bosco St. Level 8 Monsoon 1,14.483302140315637,,gutter,Monsoon,,,
46,2025-06-07,6.0,7.0,2025,,Egypt Level 8 Monsoon 1,14.482209800252452,,knee,Monsoon,,,
47,2025-06-07,6.0,7.0,2025,,of Ben’s) Level 19 Monsoon 1,14.481124921616663,,gutter,Monsoon,,,
48,2025-06-07,6.0,7.0,2025,,Russia St. Level 8 Monsoon 1,14.486465975053216,,waist,Monsoon,,,
49,2025-06-07,6.0,7.0,2025,,Carwash Level 37 Monsoon 1,14.490522079015353,,knee,Monsoon,,,
50,2025-06-07,6.0,7.0,2025,,1 Level 19 Monsoon 1,14.489049506470783,,gutter,Monsoon,,,
51,2025-06-07,6.0,7.0,2025,,k Street Level 8 Monsoon 1,14.49550011718734,,waist,Monsoon,,,
52,2025-06-07,6.0,7.0,2025,,k Street Level 19 Monsoon 1,14.496430813529676,,knee,Monsoon,,,
53,2025-06-07,6.0,7.0,2025,,Batang St. Level 19 Monsoon 1,14.49241430874772,,knee,Monsoon,,,
54,2025-06-07,6.0,7.0,2025,,k Purok 7 Level 19 Monsoon 1,14.493823256727966,,knee,Monsoon,,,
55,2025-06-07,6.0,7.0,2025,,) Level 19 Monsoon 1,14.461084936317045,,gutter,Monsoon,,,
56,2025-06-07,6.0,7.0,2025,,Valley Drive Level 8 Monsoon 1,14.491771105458936,,gutter,Monsoon,,,
57,2025-06-08,6.0,8.0,2025,,Coastal Level 8 Monsoon 1,14.503858197230144,,gutter,Monsoon,,,
58,2025-06-08,6.0,8.0,2025,,EM Factor Level 8 Monsoon 1,14.507349663762998,,gutter,Monsoon,,,
59,2025-06-08,6.0,8.0,2025,,) Level 8 Monsoon 1,14.48112178,,gutter,Monsoon,,,
61,2025-06-08,6.0,8.0,2025,,Ruppe Lane Level 8 Monsoon 1,14.47623160467984,,waist,Monsoon,,,
62,2025-06-08,6.0,8.0,2025,,Urma Drive Level 37 Monsoon 1,14.468809635724792,,gutter,Monsoon,,,
63,2025-06-08,6.0,8.0,2025,,Cmpd. Rd. Level 8 Monsoon 1,14.509929413058678,,knee,Monsoon,,,
64,2025-06-08,6.0,8.0,2025,,Bosco Dulo Level 19 Monsoon 1,14.479417472626984,,gutter,Monsoon,,,
65,2025-06-08,6.0,8.0,2025,,BrickTown Level 8 Monsoon 1,14.509593977286654,,gutter,Monsoon,,,
66,2025-06-08,6.0,8.0,2025,,JetLane Level 8 Monsoon 1,14.50872397049072,,gutter,Monsoon,,,
238,2025-07-08,7.0,8.0,2025,,238 ) 24 July2025 1,14.49084754900224,,knee,,,,
251,2025-07-08,7.0,8.0,2025,,251 ) 24 July2025 1,14.49084754900224,,knee,,,,
68,2025-07-19,7.0,19.0,2025,,68 8 2025 1,14.53155728358419,,gutter,,,,
252,2025-07-19,7.0,19.0,2025,,252 ) 24 July2025 1,14.461084936317045,,knee,,,,
253,2025-07-19,7.0,19.0,2025,,253 ) 24 July2025 1,14.48461243571823,,knee,,,,
254,2025-07-19,7.0,19.0,2025,,254 ) 24 July2025 1,14.4847012675427,,knee,,,,
258,2025-07-19,7.0,19.0,2025,,258 ) 24 July2025 1,14.479556620675234,,knee,,,,
259,2025-07-19,7.0,19.0,2025,,259 Storm Crising 24 July2025 1,14.478585115329809,,knee,,,,
260,2025-07-19,7.0,19.0,2025,,260 ) 24 July2025 1,14.478580473257097,,knee,,,,
262,2025-07-19,7.0,19.0,2025,,262 Storm Crising 24 July2025 1,14.474896061573808,,knee,,,,
69,2025-07-20,7.0,20.0,2025,,69 8 2025 1,14.530309941215238,,knee,,,,
71,2025-07-20,7.0,20.0,2025,,71 2025 1,14.479632721715358,,gutter,,,,
72,2025-07-20,7.0,20.0,2025,,72 Village 8 2025 1,14.50699052941328,,gutter,,,,
73,2025-07-20,7.0,20.0,2025,,73 8 2025 1,14.49937472920392,,gutter,,,,
74,2025-07-20,7.0,20.0,2025,,74 Northbound) 8 2025 1,14.479556620675234,,gutter,,,,
75,2025-07-20,7.0,20.0,2025,,75 Ibabaw 8 2025 1,14.48976955771457,,gutter,,,,
76,2025-07-21,7.0,21.0,2025,,76 8 Storm Crising 2025 1,14.503858197230144,,knee,,,,
77,2025-07-21,7.0,21.0,2025,,77 Storm Crising 2025 1,14.496956942857365,,knee,,,,
78,2025-07-21,7.0,21.0,2025,,78 Storm Crising 2025 1,14.492459590948576,,gutter,,,,
79,2025-07-21,7.0,21.0,2025,,79 8 Storm Crising 2025 1,14.492863350749726,,gutter,,,,
81,2025-07-21,7.0,21.0,2025,,81 8 Storm Crising 2025 1,14.490862756486042,,gutter,,,,
82,2025-07-21,7.0,21.0,2025,,82 Storm Crising July 2025 1,14.490862756486042,,gutter,,,,
83,2025-07-21,7.0,21.0,2025,,83 8 Storm Crising 2025 1,14.48460607,,waist,,,,
84,2025-07-21,7.0,21.0,2025,,84 Storm Crising 2025 1,14.48453176,,knee,,,,
85,2025-07-21,7.0,21.0,2025,,85 Storm Crising 2025 1,14.48112178,,knee,,,,
86,2025-07-21,7.0,21.0,2025,,86 Storm Crising 2025 1,14.481873427205675,,waist,,,,
87,2025-07-21,7.0,21.0,2025,,87 2025 1,14.481821724574123,,,,,,
88,2025-07-21,7.0,21.0,2025,,88 Storm Crising 2025 1,14.47950542015661,,knee,,,,
89,2025-07-21,7.0,21.0,2025,,89 Southbound) Storm Crising July 2025 1,14.479434295261685,,gutter,,,,
90,2025-07-21,7.0,21.0,2025,,90 8 Storm Crising 2025 1,14.478566255640915,,gutter,,,,
91,2025-07-21,7.0,21.0,2025,,91 8 Storm Crising 2025 1,14.478867685847364,,gutter,,,,
94,2025-07-21,7.0,21.0,2025,,94 8 2025 1,14.47390597585322,,gutter,,,,
95,2025-07-21,7.0,21.0,2025,,95 8 Storm Crising 2025 1,14.46949393699516,,gutter,,,,
96,2025-07-21,7.0,21.0,2025,,96 8 Storm Crising 2025 1,14.490862756486042,,gutter,,,,
97,2025-07-21,7.0,21.0,2025,,97 8 Storm Crising 2025 1,14.48460607,,gutter,,,,
98,2025-07-21,7.0,21.0,2025,,98 8 Storm Crising 2025 1,14.48453176,,gutter,,,,
99,2025-07-21,7.0,21.0,2025,,99 8 Storm Crising 2025 1,14.48112178,,gutter,,,,
100,2025-07-21,7.0,21.0,2025,,100 8 Storm Crising 2025 1,14.481873427205675,,gutter,,,,
101,2025-07-21,7.0,21.0,2025,,101 8 2025 1,14.481821724574123,,gutter,,,,
102,2025-07-21,7.0,21.0,2025,,102 8 Storm Crising 2025 1,14.47950542015661,,gutter,,,,
103,2025-07-21,7.0,21.0,2025,,103 8 Storm Crising 2025 1,14.479434295261685,,waist,,,,
104,2025-07-21,7.0,21.0,2025,,104 Storm Crising 2025 1,14.490862756486042,,gutter,,,,
105,2025-07-21,7.0,21.0,2025,,105 8 Storm Crising 2025 1,14.481873427205675,,knee,,,,
106,2025-07-21,7.0,21.0,2025,,106 Storm Crising 2025 1,14.490862756486042,,waist,,,,
107,2025-07-21,7.0,21.0,2025,,107 Storm Crising 2025 1,14.509517362796574,,knee,,,,
108,2025-07-21,7.0,21.0,2025,,108 ) 2025 1,14.490862756486042,,knee,,,,
109,2025-07-21,7.0,21.0,2025,,109 Storm Crising 2025 1,14.50510020307417,,knee,,,,
110,2025-07-21,7.0,21.0,2025,,110 Storm Crising 2025 1,14.480506745373884,,knee,,,,
111,2025-07-21,7.0,21.0,2025,,111 Storm Crising 2025 1,14.498570162620052,,gutter,,,,
112,2025-07-21,7.0,21.0,2025,,112 8 Storm Crising 2025 1,14.474896061573808,,gutter,,,,
113,2025-07-21,7.0,21.0,2025,,113 8 Storm Crising 2025 1,14.469303341695102,,gutter,,,,
114,2025-07-21,7.0,21.0,2025,,114 8 Storm Crising 2025 1,14.463491977469095,,gutter,,,,
115,2025-07-21,7.0,21.0,2025,,115 St. 8 2025 1,14.468844930072237,,gutter,,,,
116,2025-07-21,7.0,21.0,2025,,116 8 Storm Crising 2025 1,14.465879333689644,,gutter,,,,
117,2025-07-21,7.0,21.0,2025,,117 8 Storm Crising 2025 1,14.47073647892578,,gutter,,,,
118,2025-07-21,7.0,21.0,2025,,118 8 Storm Crising 2025 1,14.468788294011436,,knee,,,,
119,2025-07-21,7.0,21.0,2025,,119 Storm Crising 2025 1,14.465342449439587,,gutter,,,,
120,2025-07-21,7.0,21.0,2025,,120 Storm Crising 2025 1,14.46561916429221,,gutter,,,,
121,2025-07-21,7.0,21.0,2025,,121 Storm Crising 2025 1,14.479375039914071,,knee,,,,
122,2025-07-21,7.0,21.0,2025,,122 2025 1,14.470528256904448,,knee,,,,
123,2025-07-21,7.0,21.0,2025,,123 Storm Crising 2025 1,14.47100300759739,,chest,,,,
124,2025-07-21,7.0,21.0,2025,,124 Storm Crising 2025 1,14.468452749635238,,knee,,,,
125,2025-07-21,7.0,21.0,2025,,125 Storm Crising 2025 1,14.47175324819849,,waist,,,,
126,2025-07-21,7.0,21.0,2025,,126 Storm Crising 2025 1,14.458686997163165,,gutter,,,,
127,2025-07-21,7.0,21.0,2025,,127 8 Storm Crising 2025 1,14.483387457452364,,gutter,,,,
128,2025-07-21,7.0,21.0,2025,,128 8 Storm Crising 2025 1,14.484501415087102,,gutter,,,,
129,2025-07-21,7.0,21.0,2025,,129 8 2025 1,14.482060698919655,,knee,,,,
130,2025-07-21,7.0,21.0,2025,,130 Storm Crising 2025 1,14.485892348695115,,gutter,,,,
131,2025-07-21,7.0,21.0,2025,,131 Sun 8 Storm Crising 2025 1,14.491806829020357,,gutter,,,,
133,2025-07-21,7.0,21.0,2025,,133 Storm Crising 2025 1,14.469681796280916,,gutter,,,,
195,2025-07-21,7.0,21.0,2025,,195 Storm Crising 22 July 205 1,14.499824621226558,,knee,,,,
206,2025-07-21,7.0,21.0,2025,,206 Storm Crising 2025 1,14.49255795940442,,gutter,,,,
207,2025-07-21,7.0,21.0,2025,,207 8 Storm Crising 2025 1,14.492863350749726,,gutter,,,,
208,2025-07-21,7.0,21.0,2025,,208 8 Storm Crising 2025 1,14.492968327031203,,gutter,,,,
209,2025-07-21,7.0,21.0,2025,,209 8 Storm Crising 2025 1,14.470584619785296,,waist,,,,
218,2025-07-21,7.0,21.0,2025,,218 Storm Crising 2025 1,14.458686997163165,,knee,,,,
223,2025-07-21,7.0,21.0,2025,,223 8 Storm Crising 2025 1,14.477119439609911,,knee,,,,
233,2025-07-21,7.0,21.0,2025,,233 8 2025 1,14.494654038006438,,gutter,,,,
234,2025-07-21,7.0,21.0,2025,,234 8 Storm Crising 2025 1,14.491816647510325,,knee,,,,
92,2025-07-22,7.0,22.0,2025,,92 8 Storm Crising 2025 1,14.47587354387,,gutter,,,,
93,2025-07-22,7.0,22.0,2025,,93 8 Storm Crising 2025 1,14.475105525510514,,gutter,,,,
134,2025-07-22,7.0,22.0,2025,,134 8 Storm Crising 2025 1,14.478867685847364,,gutter,,,,
135,2025-07-22,7.0,22.0,2025,,135 8 Storm Crising 2025 1,14.531591666691334,,gutter,,,,
136,2025-07-22,7.0,22.0,2025,,136 8 2025 1,14.533253455811542,,gutter,,,,
137,2025-07-22,7.0,22.0,2025,,137 8 Storm Crising 2025 1,14.529193908350516,,gutter,,,,
147,2025-07-22,7.0,22.0,2025,,147 Storm Crising 2025 1,14.478697511420748,,gutter,,,,
148,2025-07-22,7.0,22.0,2025,,148 8 Storm Crising 2025 1,14.4975007595259,,waist,,,,
154,2025-07-22,7.0,22.0,2025,,154 8 Storm Crising 2025 1,14.496970323222882,,gutter,,,,
155,2025-07-22,7.0,22.0,2025,,155 8 Storm Crising 2025 1,14.489203147867874,,knee,,,,
157,2025-07-22,7.0,22.0,2025,,157 8 Storm Crising 2025 1,14.481873427205675,,waist,,,,
161,2025-07-22,7.0,22.0,2025,,161 8 Storm Crising 1,14.490384328534752,,waist,,,,
163,2025-07-22,7.0,22.0,2025,,163 8 2025 1,14.475814931247912,,gutter,,,,
172,2025-07-22,7.0,22.0,2025,,172 Storm Crising 1,14.503783634745869,,gutter,,,,
173,2025-07-22,7.0,22.0,2025,,173 8 Storm Crising 1,14.498226975544291,,knee,,,,
175,2025-07-22,7.0,22.0,2025,,175 8 Storm Crising 2025 1,14.468809635724792,,waist,,,,
176,2025-07-22,7.0,22.0,2025,,176 Storm Crising 1,14.510565325710733,,knee,,,,
177,2025-07-22,7.0,22.0,2025,,177 2025 1,14.509487636752914,,knee,,,,
179,2025-07-22,7.0,22.0,2025,,179 8 Storm Crising 1,14.492684755208328,,waist,,,,
180,2025-07-22,7.0,22.0,2025,,180 Storm Crising 2025 1,14.510000947692111,,knee,,,,
181,2025-07-22,7.0,22.0,2025,,181 Storm Crising 2025 1,14.50957751280398,,gutter,,,,
182,2025-07-22,7.0,22.0,2025,,182 8 Storm Crising 1,14.503858197230144,,gutter,,,,
184,2025-07-22,7.0,22.0,2025,,184 8 2025 1,14.507798174057042,,knee,,,,
185,2025-07-22,7.0,22.0,2025,,185 Storm Crising 2025 1,14.472680090982829,,knee,,,,
186,2025-07-22,7.0,22.0,2025,,186 Storm Crising 2025,14.471927312245462,,waist,,,,
188,2025-07-22,7.0,22.0,2025,,188 8 Storm Crising 2025 1,14.46171178345642,,chest,,,,
189,2025-07-22,7.0,22.0,2025,,189 Storm Crising 2025 1,14.467456140928476,,chest,,,,
191,2025-07-22,7.0,22.0,2025,,191 8 2025 1,14.469305853139588,,gutter,,,,
192,2025-07-22,7.0,22.0,2025,,192 8 Storm Crising 2025,14.470530267166644,,knee,,,,
193,2025-07-22,7.0,22.0,2025,,193 Storm Crising 2025,14.469790137340867,,chest,,,,
194,2025-07-22,7.0,22.0,2025,,194 Storm Crising 2025,14.469658100084956,,chest,,,,
198,2025-07-22,7.0,22.0,2025,,198 2025 1,14.493059846559792,,knee,,,,
200,2025-07-22,7.0,22.0,2025,,200 Storm Crising 2025 1,14.478487995821988,,waist,,,,
201,2025-07-22,7.0,22.0,2025,,201 Storm Crising 2025 1,14.480946496622405,,chest,,,,
202,2025-07-22,7.0,22.0,2025,,202 Storm Crising 2025 1,14.492540675689105,,waist,,,,
204,2025-07-22,7.0,22.0,2025,,204 Storm Crising 2025 1,14.492684755208328,,knee,,,,
210,2025-07-22,7.0,22.0,2025,,210 Storm Crising 2025 1,14.47212124858506,,waist,,,,
211,2025-07-22,7.0,22.0,2025,,211 Storm Crising 2025 1,14.466432039645529,,chest,,,,
212,2025-07-22,7.0,22.0,2025,,212 2025 1,14.464071283310473,,waist,,,,
213,2025-07-22,7.0,22.0,2025,,213 Storm Crising 2025 1,14.460911472582865,,knee,,,,
215,2025-07-22,7.0,22.0,2025,,215 Storm Crising 2025 1,14.463491977469095,,gutter,,,,
217,2025-07-22,7.0,22.0,2025,,217 Storm Crising 2025 1,14.47100300759739,,waist,,,,
219,2025-07-22,7.0,22.0,2025,,219 Estate 2025 1,14.47556475479114,,knee,,,,
220,2025-07-22,7.0,22.0,2025,,220 Storm Crising 2025 1,14.485677243909624,,gutter,,,,
222,2025-07-22,7.0,22.0,2025,,222 Storm Crising 2025 1,14.48330866323926,,gutter,,,,
224,2025-07-22,7.0,22.0,2025,,224 Storm Crising 2025 1,14.484307622035775,,gutter,,,,
225,2025-07-22,7.0,22.0,2025,,225 8 Storm Crising 2025 1,14.48065265020776,,gutter,,,,
226,2025-07-22,7.0,22.0,2025,,226 8 2025 1,14.48844304921861,,knee,,,,
227,2025-07-22,7.0,22.0,2025,,227 Storm Crising 2025 1,14.484724209339609,,gutter,,,,
228,2025-07-22,7.0,22.0,2025,,228 8 Storm Crising 2025 1,14.481986847935875,,gutter,,,,
229,2025-07-22,7.0,22.0,2025,,229 8 Storm Crising 2025 1,14.482153822801768,,knee,,,,
230,2025-07-22,7.0,22.0,2025,,230 Storm Crising 2025 1,14.48221227358643,,knee,,,,
231,2025-07-22,7.0,22.0,2025,,231 Storm Crising 2025 1,14.496618986977564,,waist,,,,
70,2025-07-23,7.0,23.0,2025,,70 2025 1,14.478639088842868,,knee,,,,
138,2025-07-23,7.0,23.0,2025,,138 8 Storm Crising 2025 1,14.51692433538826,,gutter,,,,
139,2025-07-23,7.0,23.0,2025,,139 8 Storm Crising 2025 1,14.516208531864738,,gutter,,,,
140,2025-07-23,7.0,23.0,2025,,140 8 Storm Crising 2025 1,14.512846706546652,,knee,,,,
141,2025-07-23,7.0,23.0,2025,,141 Storm Crising 2025 1,14.518710686530769,,gutter,,,,
142,2025-07-23,7.0,23.0,2025,,142 8 Storm Crising 2025 1,14.514389381447666,,gutter,,,,
143,2025-07-23,7.0,23.0,2025,,143 8 2025 1,14.509454385373092,,waist,,,,
144,2025-07-23,7.0,23.0,2025,,144 Storm Crising 2025 1,14.48303817419274,,knee,,,,
151,2025-07-23,7.0,23.0,2025,,151 Storm Crising 2025 1,14.47273795589385,,waist,,,,
159,2025-07-23,7.0,23.0,2025,,159 Storm Crising 2025 1,14.481715171874948,,waist,,,,
165,2025-07-23,7.0,23.0,2025,,165 Storm Crising 1,14.496486195722426,,knee,,,,
167,2025-07-23,7.0,23.0,2025,,167 8 Storm Crising 1,14.502737621912187,,gutter,,,,
168,2025-07-23,7.0,23.0,2025,,168 8 Storm Crising 2025 1,14.507095803376526,,chest,,,,
169,2025-07-23,7.0,23.0,2025,,169 Storm Crising 1,14.498330195484892,,waist,,,,
170,2025-07-23,7.0,23.0,2025,,170 2025 1,14.500023291083304,,chest,,,,
171,2025-07-23,7.0,23.0,2025,,171 Storm Crising 2025 1,14.498701240583152,,knee,,,,
174,2025-07-23,7.0,23.0,2025,,174 Storm Crising 2025 1,14.509482753691758,,gutter,,,,
178,2025-07-23,7.0,23.0,2025,,178 Storm Crising 2025 1,14.509981765057088,,gutter,,,,
196,2025-07-23,7.0,23.0,2025,,196 Storm Crising 2025 1,14.499602451616743,,gutter,,,,
197,2025-07-23,7.0,23.0,2025,,197 8 Storm Crising 2025 1,14.490563293070307,,waist,,,,
199,2025-07-23,7.0,23.0,2025,,199 Storm Crising 2025,14.493510950689142,,chest,,,,
205,2025-07-23,7.0,23.0,2025,,205 2025 1,14.494628964217007,,knee,,,,
221,2025-07-23,7.0,23.0,2025,,221 8 Storm Crising 2025 1,14.487741209833263,,knee,,,,
232,2025-07-23,7.0,23.0,2025,,232 Storm Crising 2025 1,14.491935775596136,,gutter,,,,
235,2025-07-23,7.0,23.0,2025,,235 Storm Crising 2025 1,14.489600319850393,,knee,,,,
236,2025-07-23,7.0,23.0,2025,,236 Storm Crising 2025,14.489668182820417,,knee,,,,
240,2025-07-23,7.0,23.0,2025,,240 1 Enchanced 23 July2025 1,14.489049506470783,,knee,,,,
241,2025-07-23,7.0,23.0,2025,,241 Storm Crising 23 July2025 1,14.508465192894894,,waist,,,,
242,2025-07-23,7.0,23.0,2025,,242 Storm Crising 23 July2025 1,14.47517951255734,,knee,,,,
243,2025-07-23,7.0,23.0,2025,,243 Storm Crising 23 July2025 1,14.468809635724792,,gutter,,,,
246,2025-07-23,7.0,23.0,2025,,246 1 Storm Crising 23 July2025 1,14.489049506470783,,knee,,,,
247,2025-07-23,7.0,23.0,2025,,247 Enchanced 23 July2025 1,14.508465192894894,,waist,,,,
248,2025-07-23,7.0,23.0,2025,,248 Storm Crising 23 July2025 1,14.47517951255734,,knee,,,,
249,2025-07-23,7.0,23.0,2025,,249 Storm Crising 23 July2025 1,14.468809635724792,,gutter,,,,
145,2025-07-24,7.0,24.0,2025,,145 Storm Crising 2025 1,14.487110282693996,,waist,,,,
146,2025-07-24,7.0,24.0,2025,,146 Storm Crising 2025 1,14.48832488255414,,knee,,,,
149,2025-07-24,7.0,24.0,2025,,149 ) Storm Crising 2025 1,14.4847012675427,,waist,,,,
150,2025-07-24,7.0,24.0,2025,,150 2025 1,14.48461243571823,,waist,,,,
152,2025-07-24,7.0,24.0,2025,,152 Northbound) 2025 1,14.478637136620824,,waist,,,,
153,2025-07-24,7.0,24.0,2025,,153 Northbound) 2025 1,14.479556620675234,,gutter,,,,
156,2025-07-24,7.0,24.0,2025,,156 Southbound) Storm Crising 2025 1,14.490887970144172,,gutter,,,,
158,2025-07-24,7.0,24.0,2025,,158 Northbond) 2025 1,14.481089846584272,,chest,,,,
160,2025-07-24,7.0,24.0,2025,,160 Storm Crising 2025 1,14.474980838930822,,gutter,,,,
162,2025-07-24,7.0,24.0,2025,,162 Northbound) Storm Crising 1,14.481882308612564,,gutter,,,,
164,2025-07-24,7.0,24.0,2025,,164 8 Storm Crising 1,14.499204411270044,,waist,,,,
166,2025-07-24,7.0,24.0,2025,,166 Storm Crising 1,14.508465192894894,,gutter,,,,
255,2025-07-24,7.0,24.0,2025,,255 ) 24 July2025 1,14.481072827464269,,knee,,,,
257,2025-07-24,7.0,24.0,2025,,257 (Nortbound) Storm Crising 24 July2025 1,14.479556620675234,,knee,,,,
261,2025-07-24,7.0,24.0,2025,,261 Ave. Storm Crising 24 July2025 1,14.475814931247912,,knee,,,,
263,2025-07-24,7.0,24.0,2025,,263 Estate Storm Crising 24 July2025,14.471039029414548,,waist,,,,
264,2025-07-24,7.0,24.0,2025,,264 Storm Crising 24 July2025,14.476108162201855,,gutter,,,,
267,2025-08-16,8.0,16.0,2025,,"267 2025 Dionisio Level 8 Monsoon ° of 1510H, 1",14.481873427205675,,gutter,Monsoon,,,
268,2025-08-16,8.0,16.0,2025,,268 8 ° 2025 1,14.4847012675427,,gutter,,,,
270,2025-08-16,8.0,16.0,2025,,270 ° 2025 1,14.478639088842868,,gutter,,,,
271,2025-08-16,8.0,16.0,2025,,271 8 ° 2025 1,14.478867685847364,,knee,,,,
273,2025-08-16,8.0,16.0,2025,,273 ° 2025 1,14.490862756486042,,gutter,,,,
274,2025-08-16,8.0,16.0,2025,,274 8 ° 2025,14.490885533555252,,knee,,,,
275,2025-08-16,8.0,16.0,2025,,275 ° 2025,14.465033730612896,,waist,,,,
276,2025-08-16,8.0,16.0,2025,,276 ° 2025,14.50424642965824,,knee,,,,
277,2025-08-16,8.0,16.0,2025,,277 ° 2025,14.50664806174368,,gutter,,,,
279,2025-08-16,8.0,16.0,2025,,279 ° 2025 1,14.468809635724792,,gutter,,,,
280,2025-08-16,8.0,16.0,2025,,280 ° 2025 1,14.510000947692111,,waist,,,,
281,2025-08-16,8.0,16.0,2025,,281 ° 2025 1,14.48112178,,gutter,,,,
283,2025-08-16,8.0,16.0,2025,,283 ° 2025 1,14.50957751280398,,waist,,,,
284,2025-08-16,8.0,16.0,2025,,284 1500H Merville ° 2025,14.485067366417672,,waist,,,,
285,2025-08-16,8.0,16.0,2025,,285 1500H Bosco ° 2025,14.485876171152537,,knee,,,,
286,2025-08-16,8.0,16.0,2025,,286 1500H Bosco ° 2025,14.48231413612893,,knee,,,,
288,2025-08-16,8.0,16.0,2025,,288 1550H Dionisio ° 2025 1,14.48112178,,waist,,,,
289,2025-08-16,8.0,16.0,2025,,289 1550H Antonio St. ° 2025 1,14.47100300759739,,gutter,,,,
290,2025-08-16,8.0,16.0,2025,,290 1550H Bosco ° 2025,14.460871561409782,,knee,,,,
295,2025-08-16,8.0,16.0,2025,,295 1615H Sto. Niño ° 2025 1,14.47517951255734,,waist,,,,
296,2025-08-22,8.0,22.0,2025,,296 0745H Vitalez Storm Isang 2025 1,14.468809635724792,,gutter,,,,
297,2025-08-22,8.0,22.0,2025,,297 0745H Vitalez Storm Isang 2025 1,14.48112178,,gutter,,,,
298,2025-08-22,8.0,22.0,2025,,298 0745H Vitalez Storm Isang 2025 1,14.50957751280398,,gutter,,,,
299,2025-08-22,8.0,22.0,2025,,299 0745H Vitalez Storm Isang 2025,14.509499909975986,,knee,,,,
301,2025-08-22,8.0,22.0,2025,,"301 0745H Dionisio Avenue Enchanced of 1110H, 1",14.474896061573808,,gutter,,,,
302,2025-08-22,8.0,22.0,2025,,302 0845H Dionisio ) Storm Isang 2025 1,14.48112178,,gutter,,,,
303,2025-08-22,8.0,22.0,2025,,303 0845H Dionisio ) 2025 1,14.481072827464269,,gutter,,,,
304,2025-08-22,8.0,22.0,2025,,304 0845H Dionisio ) 2025 1,14.479556620675234,,gutter,,,,
305,2025-08-22,8.0,22.0,2025,,305 0845H Storm Isang 2025,14.497286762590536,,gutter,,,,
306,2025-08-22,8.0,22.0,2025,,306 0845H Storm Isang 2025,14.535338976801013,,gutter,,,,
307,2025-08-22,8.0,22.0,2025,,307 0845H Storm Isang 2025,14.477660577070797,,knee,,,,
308,2025-08-22,8.0,22.0,2025,,"308 2025 k Level Monsoon of 1423H,",14.49241339768198,,knee,Monsoon,,,
310,2025-08-22,8.0,22.0,2025,,310 Storm Isang 2025 1,14.47517951255734,,waist,,,,
311,2025-08-22,8.0,22.0,2025,,311 Storm Isang 2025,14.49393854208995,,knee,,,,
312,2025-08-22,8.0,22.0,2025,,312 Storm Isang 2025,14.493059846559792,,waist,,,,
313,2025-08-22,8.0,22.0,2025,,313 Storm Isang 2025,14.49230549346832,,knee,,,,
314,2025-08-22,8.0,22.0,2025,,314 Storm Isang 2025,14.5014903711989,,waist,,,,
315,2025-08-22,8.0,22.0,2025,,"315 Enchanced of 1110H,",14.502422808643695,,knee,,,,
317,2025-08-22,8.0,22.0,2025,,317 Storm Isang 2025 1,14.496956942857365,,waist,,,,
319,2025-08-22,8.0,22.0,2025,,319 Storm Isang 2025 1,14.478867685847364,,knee,,,,
320,2025-08-22,8.0,22.0,2025,,320 Storm Isang 2025 1,14.478867685847364,,waist,,,,
321,2025-08-22,8.0,22.0,2025,,321 Storm Isang 2025,14.530932670270202,,knee,,,,
323,2025-08-22,8.0,22.0,2025,,323 Storm Isang 2025 1,14.532359024342464,,knee,,,,
324,2025-08-22,8.0,22.0,2025,,324 Storm Isang 2025,14.50884535392817,,knee,,,,
326,2025-08-22,8.0,22.0,2025,,326 Storm Isang 2025 1,14.516208531864738,,gutter,,,,
327,2025-08-22,8.0,22.0,2025,,327 Storm Isang 2025,14.501338300802423,,knee,,,,
328,2025-08-22,8.0,22.0,2025,,328 Storm Isang 2025,14.500735718592878,,knee,,,,
329,2025-08-22,8.0,22.0,2025,,329 2025,14.492370497276706,,gutter,,,,
342,2025-09-08,9.0,8.0,2025,,342 Sucat °C 06 1,14.48461243571823,,knee,,,,
353,2025-09-08,9.0,8.0,2025,,353 Nando 025 1,14.492863350749726,,gutter,,,,
354,2025-09-08,9.0,8.0,2025,,354 Batang by Super 22 1,14.490872626703876,,gutter,,,,
356,2025-09-08,9.0,8.0,2025,,356 ) 025 1,14.478585115329809,,gutter,,,,
357,2025-09-08,9.0,8.0,2025,,357 Opong 025 1,14.474896061573808,,waist,,,,
358,2025-09-08,9.0,8.0,2025,,358 Opong 025 1,14.481873427205675,,gutter,,,,
359,2025-09-08,9.0,8.0,2025,,359 Opong 025,14.47010227172084,,knee,,,,
363,2025-09-08,9.0,8.0,2025,,363 Opong 025,14.482945749781626,,gutter,,,,
364,2025-09-08,9.0,8.0,2025,,364 Opong 025,14.49255795940442,,gutter,,,,
366,2025-09-08,9.0,8.0,2025,,366 Opong 025 1,14.496956942857365,,knee,,,,
370,2025-09-08,9.0,8.0,2025,,370 Opong 025 1,14.492684755208328,,gutter,,,,
371,2025-09-08,9.0,8.0,2025,,371 (Nortbound) Opong 025 1,14.479556620675234,,gutter,,,,
373,2025-09-08,9.0,8.0,2025,,373 Opong 025 1,14.474896061573808,,gutter,,,,
361,2025-09-19,9.0,19.0,2025,,"361 26, 2025 Level Monsoon of 1333H, 1",14.468809635724792,,gutter,Monsoon,,,
368,2025-09-19,9.0,19.0,2025,,368 enchanced 26,14.492863350749726,,gutter,,,,
377,2025-09-19,9.0,19.0,2025,,377 Opong 025 1,14.496956942857365,,knee,,,,
331,2025-09-29,9.0,29.0,2025,,331 ) °C 025 1,14.461084936317045,,knee,,,,
333,2025-09-29,9.0,29.0,2025,,333 ) °C 025 1,14.478585115329809,,knee,,,,
334,2025-09-29,9.0,29.0,2025,,334 °C 025 1,14.474896061573808,,waist,,,,
335,2025-09-29,9.0,29.0,2025,,335 °C 025 1,14.468809635724792,,knee,,,,
336,2025-09-29,9.0,29.0,2025,,336 °C 025 1,14.48112178,,knee,,,,
337,2025-09-29,9.0,29.0,2025,,337 (Nortbound) °C 025 1,14.479556620675234,,knee,,,,
338,2025-09-29,9.0,29.0,2025,,338 ) °C 025 1,14.479556620675234,,knee,,,,
339,2025-09-29,9.0,29.0,2025,,339 ) °C 025 1,14.478580473257097,,knee,,,,
340,2025-09-29,9.0,29.0,2025,,340 Ave. °C 025 1,14.475814931247912,,waist,,,,
343,2025-09-29,9.0,29.0,2025,,343 ) °C 025 1,14.4847012675427,,knee,,,,
344,2025-09-29,9.0,29.0,2025,,344 °C 025 1,14.47517951255734,,gutter,,,,
345,2025-09-29,9.0,29.0,2025,,345 °C 025,14.479410046415996,,gutter,,,,
347,2025-09-29,9.0,29.0,2025,,347 °C 025 1,14.489049506470783,,gutter,,,,
348,2025-09-29,9.0,29.0,2025,,348 ) °C 025,14.481985232429098,,gutter,,,,
349,2025-09-29,9.0,29.0,2025,,349 ) °C 025,14.481859278606118,,gutter,,,,
351,2025-09-29,9.0,29.0,2025,,351 Nando 025 1,14.468809635724792,,gutter,,,,
381,2025-10-03,10.0,3.0,2025,,381 23 °C - 32 °C 5 Monitor,14.470829242099052,,gutter,,,,
382,2025-10-06,10.0,6.0,2025,,382 24 °C - 32 °C 5 Monitor,14.471341783668256,,gutter,,,,
383,2025-10-08,10.0,8.0,2025,,383 25 °C - 32 °C 06 Monitor,14.474439794254856,,gutter,,,,
385,2025-10-19,10.0,19.0,2025,,385 27 °C - 32 °C 5 Monitor 1,14.492684755208328,,,,,,
367,,,,2025,,367 Opong 025 1,14.496956942857365,,knee,,,,
372,,,,2025,,372 Ave. Opong 025 1,14.475814931247912,,gutter,,,,
375,,,,2025,,375 enchanced 26 1,14.468809635724792,,knee,,,,
378,,,,2025,,378 Opong 025 1,14.47517951255734,,gutter,,,,
379,,,,2025,,379 Opong 025 1,14.47517951255734,,gutter,,,,
